[
  {
    "title": "Victoria Station",
    "address_1": "Victoria Street",
    "address_2": "Victoria",
    "city": "London",
    "state": "",
    "postal_code": "SW1E 5ND",
    "country": "",
    "telephone": "",
    "latitude": "51.494733",
    "longitude": "-0.144580",
    "transit_info": "Victoria",
    "wifi_available": true,
    "hours": [
      {
        "title": "Monday",
        "hours": "7:30am-10pm",
        "highlight": false
      },
      {
        "title": "Tuesday",
        "hours": "7:30am-10pm",
        "highlight": false
      },
      {
        "title": "Wednesday",
        "hours": "7:30am-10pm",
        "highlight": false
      },
      {
        "title": "Thursday",
        "hours": "7:30am-10pm",
        "highlight": false
      },
      {
        "title": "Friday",
        "hours": "7:30am-10pm",
        "highlight": false
      },
      {
        "title": "Saturday",
        "hours": "7:30am-10pm",
        "highlight": false
      },
      {
        "title": "Sunday",
        "hours": "9:00am-7:00pm",
        "highlight": false
      },
      {
        "title": "half price sale starts at",
        "hours": "30 mins to close",
        "highlight": true
      }
    ],
    "delivery_options": [],
    "single_url": "https:\/\/www.itsu.com\/location\/victoria-station\/"
  },
  {
    "title": "Victoria Street 53",
    "address_1": "53 Victoria Street, London",
    "address_2": "",
    "city": "London",
    "state": "",
    "postal_code": "SW1H 0EU",
    "country": "UK",
    "telephone": "0203-326-5186",
    "latitude": "51.497891",
    "longitude": "-0.133374",
    "transit_info": "St Jame's Park",
    "wifi_available": true,
    "hours": [
      {
        "title": "Monday",
        "hours": "10am - 9pm",
        "highlight": false
      },
      {
        "title": "Tuesday",
        "hours": "10am - 9pm",
        "highlight": false
      },
      {
        "title": "Wednesday",
        "hours": "10am - 9pm",
        "highlight": false
      },
      {
        "title": "Thursday",
        "hours": "10am - 9pm",
        "highlight": false
      },
      {
        "title": "Friday",
        "hours": "10am - 9pm",
        "highlight": false
      },
      {
        "title": "Saturday",
        "hours": "10am - 8pm",
        "highlight": false
      },
      {
        "title": "Sunday",
        "hours": "11am - 7pm",
        "highlight": false
      },
      {
        "title": "half price sale starts",
        "hours": "30 mins prior to close",
        "highlight": true
      },
      {
        "title": "beer & bowl deal available",
        "hours": "",
        "highlight": true
      }
    ],
    "delivery_options": [
      {
        "location_option": "deliveroo",
        "link_or_phone_number": "https:\/\/deliveroo.co.uk\/brands\/itsu\/?utm_medium=backlink&utm_source=itsu&utm_campaign=webreferral"
      },
      {
        "location_option": "uber_eats",
        "link_or_phone_number": "https:\/\/www.ubereats.com\/en-GB\/london\/food-delivery\/itsu-victoria\/u-mrURqlRQCex18yptA5MQ\/"
      }
    ],
    "single_url": "https:\/\/www.itsu.com\/location\/victoria-street-53\/"
  },
  {
    "title": "Gatwick South Terminal",
    "address_1": "itsu Gatwick south, South terminal departure lounge",
    "address_2": "Gatwick Airport",
    "city": "Horley",
    "state": "",
    "postal_code": "RH6 0NP",
    "country": "UK",
    "telephone": "01293300630",
    "latitude": "51.156989",
    "longitude": "-0.163368",
    "transit_info": "",
    "wifi_available": true,
    "hours": [
      {
        "title": "Monday",
        "hours": "4am - 9pm",
        "highlight": false
      },
      {
        "title": "Tuesday",
        "hours": "4am - 9pm",
        "highlight": false
      },
      {
        "title": "Wednesday",
        "hours": "4am - 9pm",
        "highlight": false
      },
      {
        "title": "Thursday",
        "hours": "4am - 9pm",
        "highlight": false
      },
      {
        "title": "Friday",
        "hours": "4am - 9pm",
        "highlight": false
      },
      {
        "title": "Saturday",
        "hours": "4am - 9pm",
        "highlight": false
      },
      {
        "title": "Sunday",
        "hours": "4am - 9pm",
        "highlight": false
      },
      {
        "title": "half price sales starts 30 mins prior to close",
        "hours": "",
        "highlight": true
      }
    ],
    "delivery_options": [],
    "single_url": "https:\/\/www.itsu.com\/location\/gatwick-south-terminal\/"
  },
  {
    "title": "Oxford Westgate",
    "address_1": "Unit 9A, Westgate Centre",
    "address_2": "",
    "city": "Oxford",
    "state": "",
    "postal_code": "OX1 1NZ",
    "country": "UK",
    "telephone": "0186 558 7248",
    "latitude": "51.749375",
    "longitude": "-1.262069",
    "transit_info": "Oxford",
    "wifi_available": true,
    "hours": [
      {
        "title": "Monday",
        "hours": "10am - 8:30pm",
        "highlight": false
      },
      {
        "title": "Tuesday",
        "hours": "10am - 8:30pm",
        "highlight": false
      },
      {
        "title": "Wednesday",
        "hours": "10am - 8:30pm",
        "highlight": false
      },
      {
        "title": "Thursday",
        "hours": "10am - 8:30pm",
        "highlight": false
      },
      {
        "title": "Friday",
        "hours": "10am - 8:30pm",
        "highlight": false
      },
      {
        "title": "Saturday",
        "hours": "10am - 8:30pm",
        "highlight": false
      },
      {
        "title": "Sunday",
        "hours": "11am - 6pm",
        "highlight": false
      },
      {
        "title": "half price sale starts at",
        "hours": "30 mins prior to close",
        "highlight": true
      },
      {
        "title": "beer & bowl deal available",
        "hours": "",
        "highlight": true
      }
    ],
    "delivery_options": [],
    "single_url": "https:\/\/www.itsu.com\/location\/oxford-westgate\/"
  },
  {
    "title": "Itsu 7th Avenue &amp; 39th Street, NYC",
    "address_1": "530 7th Avenue New York 10018",
    "address_2": "",
    "city": "New York",
    "state": "New York",
    "postal_code": "10018",
    "country": "US",
    "telephone": "",
    "latitude": "40.754148",
    "longitude": "-73.988931",
    "transit_info": "",
    "wifi_available": false,
    "hours": [
      {
        "title": "Monday - Friday ",
        "hours": "10am - 10pm",
        "highlight": false
      },
      {
        "title": "Saturday - Sunday ",
        "hours": "Closed",
        "highlight": false
      }
    ],
    "delivery_options": [],
    "single_url": "https:\/\/www.itsu.com\/location\/itsu-usa-coming-soon-summer-2018\/"
  },
  {
    "title": "The Shard",
    "address_1": "The Shard Retail Arcade",
    "address_2": "",
    "city": "London",
    "state": "",
    "postal_code": "SE1 9SG",
    "country": "UK",
    "telephone": "0203 667 8307",
    "latitude": "51.5049779",
    "longitude": "-0.0876237",
    "transit_info": "",
    "wifi_available": true,
    "hours": [
      {
        "title": "Monday",
        "hours": "9am - 9:30pm",
        "highlight": false
      },
      {
        "title": "Tuesday",
        "hours": "9am - 9:30pm",
        "highlight": false
      },
      {
        "title": "Wednesday",
        "hours": "9am - 9:30pm",
        "highlight": false
      },
      {
        "title": "Thursday",
        "hours": "9am - 9:30pm",
        "highlight": false
      },
      {
        "title": "Friday",
        "hours": "9am - 9:30pm",
        "highlight": false
      },
      {
        "title": "Saturday",
        "hours": "10am - 9:30pm",
        "highlight": false
      },
      {
        "title": "Sunday",
        "hours": "11am - 8pm",
        "highlight": false
      },
      {
        "title": "half price sale 30 minutes before closing",
        "hours": "",
        "highlight": true
      },
      {
        "title": "beer & bowl deal available",
        "hours": "",
        "highlight": true
      }
    ],
    "delivery_options": [
      {
        "location_option": "deliveroo",
        "link_or_phone_number": "https:\/\/deliveroo.co.uk\/brands\/itsu\/?utm_medium=backlink&utm_source=itsu&utm_campaign=webreferral"
      },
      {
        "location_option": "uber_eats",
        "link_or_phone_number": "https:\/\/www.ubereats.com\/en-GB\/london\/food-delivery\/itsu-shard\/cpQI-AQqQDGDkB11fyQ6og\/"
      },
      {
        "location_option": "online",
        "link_or_phone_number": "https:\/\/citypantry.com\/menus\/vendors\/itsu\/menu?utm_source=itsu&utm_medium=referral&utm_campaign=vendor-backlink"
      }
    ],
    "single_url": "https:\/\/www.itsu.com\/location\/the-shard\/"
  },
  {
    "title": "Ealing Broadway",
    "address_1": "Ealing Broadway Shopping Centre",
    "address_2": "",
    "city": "London",
    "state": "",
    "postal_code": "W5 5JY",
    "country": "UK",
    "telephone": "0203 667 8308",
    "latitude": "51.5131236",
    "longitude": "-0.3058523",
    "transit_info": "",
    "wifi_available": false,
    "hours": [
      {
        "title": "Monday",
        "hours": "11am - 9:30pm",
        "highlight": false
      },
      {
        "title": "Tuesday",
        "hours": "11am - 9:30pm",
        "highlight": false
      },
      {
        "title": "Wednesday",
        "hours": "11am - 9:30pm",
        "highlight": false
      },
      {
        "title": "Thursday",
        "hours": "11am - 9:30pm",
        "highlight": false
      },
      {
        "title": "Friday",
        "hours": "11am - 9:30pm",
        "highlight": false
      },
      {
        "title": "Saturday",
        "hours": "11am - 9:30pm",
        "highlight": false
      },
      {
        "title": "Sunday",
        "hours": "11am - 9:30pm",
        "highlight": false
      },
      {
        "title": "half price sale 1 hour before closing",
        "hours": "",
        "highlight": true
      },
      {
        "title": "beer & bowl deal available",
        "hours": "",
        "highlight": true
      }
    ],
    "delivery_options": [
      {
        "location_option": "online",
        "link_or_phone_number": "https:\/\/deliveroo.co.uk\/brands\/itsu\/?utm_medium=backlink&utm_source=itsu&utm_campaign=webreferral"
      },
      {
        "location_option": "online",
        "link_or_phone_number": "https:\/\/www.ubereats.com\/en-GB\/london\/food-delivery\/itsu-ealing-broadway\/1CeoSBGiQg2Yoo56cER4Vw\/"
      },
      {
        "location_option": "online",
        "link_or_phone_number": "https:\/\/www.just-eat.co.uk\/restaurants-itsu-ealing\/menu"
      }
    ],
    "single_url": "https:\/\/www.itsu.com\/location\/ealing-broadway\/"
  },
  {
    "title": "Wimbledon",
    "address_1": "Wimbledon Bridge House",
    "address_2": "Wimbledon",
    "city": "London",
    "state": "",
    "postal_code": "SW19 3RU",
    "country": "UK",
    "telephone": "0203 667 8309",
    "latitude": "51.420759",
    "longitude": "-0.206656",
    "transit_info": "",
    "wifi_available": true,
    "hours": [
      {
        "title": "Monday",
        "hours": "10am - 9:30pm",
        "highlight": false
      },
      {
        "title": "Tuesday",
        "hours": "10am - 9:30pm",
        "highlight": false
      },
      {
        "title": "Wednesday",
        "hours": "10am - 9:30pm",
        "highlight": false
      },
      {
        "title": "Thursday",
        "hours": "10am - 9:30pm",
        "highlight": false
      },
      {
        "title": "Friday",
        "hours": "10am - 9:30pm",
        "highlight": false
      },
      {
        "title": "Saturday",
        "hours": "10am - 9:00pm",
        "highlight": false
      },
      {
        "title": "Sunday",
        "hours": "10am - 8:00pm",
        "highlight": false
      },
      {
        "title": "half price sale half hour before close",
        "hours": "",
        "highlight": true
      },
      {
        "title": "beer & bowl deal available",
        "hours": "",
        "highlight": true
      }
    ],
    "delivery_options": [
      {
        "location_option": "online",
        "link_or_phone_number": "https:\/\/deliveroo.co.uk\/menu\/london\/wimbledon\/itsu-wimbledon"
      },
      {
        "location_option": "online",
        "link_or_phone_number": "https:\/\/www.ubereats.com\/en-GB\/london\/food-delivery\/itsu-wimbledon\/CxNgW1psQxyVKOd1iMqpdw\/"
      },
      {
        "location_option": "online",
        "link_or_phone_number": "https:\/\/www.just-eat.co.uk\/restaurants-itsuwimbledon-wimbledon\/menu"
      }
    ],
    "single_url": "https:\/\/www.itsu.com\/location\/wimbledon\/"
  },
  {
    "title": "Baker Street 15",
    "address_1": "15 Baker Street, Marylebone",
    "address_2": "Unit 1",
    "city": "London",
    "state": "",
    "postal_code": "W1U 3BX",
    "country": "UK",
    "telephone": "0207-935-5672",
    "latitude": "51.517135",
    "longitude": "-0.155623",
    "transit_info": "Bond Street",
    "wifi_available": true,
    "hours": [
      {
        "title": "Monday",
        "hours": "11am - 9pm",
        "highlight": false
      },
      {
        "title": "Tuesday",
        "hours": "11am - 9pm",
        "highlight": false
      },
      {
        "title": "Wednesday",
        "hours": "11am - 9pm",
        "highlight": false
      },
      {
        "title": "Thursday",
        "hours": "11am - 9pm",
        "highlight": false
      },
      {
        "title": "Friday",
        "hours": "11am - 9pm",
        "highlight": false
      },
      {
        "title": "Saturday",
        "hours": "11am - 7pm",
        "highlight": false
      },
      {
        "title": "Sunday",
        "hours": "11am - 7pm",
        "highlight": false
      },
      {
        "title": "half price sale starts",
        "hours": "30 mins prior to close",
        "highlight": true
      },
      {
        "title": "beer & bowl deal available",
        "hours": "",
        "highlight": true
      }
    ],
    "delivery_options": [
      {
        "location_option": "online",
        "link_or_phone_number": "https:\/\/citypantry.com\/menus\/vendors\/itsu\/menu?utm_source=itsu&utm_medium=referral&utm_campaign=vendor-backlink"
      }
    ],
    "single_url": "https:\/\/www.itsu.com\/location\/baker-street-15-2\/"
  },
  {
    "title": "Baker Street 132",
    "address_1": "132 Baker Street, Marylebone",
    "address_2": "",
    "city": "London",
    "state": "",
    "postal_code": "W1U 6UA",
    "country": "UK",
    "telephone": "0203-814-8661",
    "latitude": "51.521840",
    "longitude": "-0.157073",
    "transit_info": "Baker Street",
    "wifi_available": true,
    "hours": [
      {
        "title": "Monday",
        "hours": "11am - 9pm",
        "highlight": false
      },
      {
        "title": "Tuesday",
        "hours": "11am - 9pm",
        "highlight": false
      },
      {
        "title": "Wednesday",
        "hours": "11am - 9pm",
        "highlight": false
      },
      {
        "title": "Thursday",
        "hours": "11am - 9pm",
        "highlight": false
      },
      {
        "title": "Friday",
        "hours": "11am - 9pm",
        "highlight": false
      },
      {
        "title": "Saturday",
        "hours": "11am - 9pm",
        "highlight": false
      },
      {
        "title": "Sunday",
        "hours": "12pm - 8pm",
        "highlight": false
      },
      {
        "title": "half price sale starts",
        "hours": "30 mins prior to close",
        "highlight": true
      },
      {
        "title": "beer & bowl deal available",
        "hours": "",
        "highlight": true
      }
    ],
    "delivery_options": [
      {
        "location_option": "deliveroo",
        "link_or_phone_number": "https:\/\/deliveroo.co.uk\/brands\/itsu\/?utm_medium=backlink&utm_source=itsu&utm_campaign=webreferral"
      },
      {
        "location_option": "uber_eats",
        "link_or_phone_number": "https:\/\/www.ubereats.com\/en-GB\/london\/food-delivery\/itsu-baker-street\/URu4xQX9SLSdFPAaDwA5eA\/"
      },
      {
        "location_option": "online",
        "link_or_phone_number": "https:\/\/citypantry.com\/menus\/vendors\/itsu\/menu?utm_source=itsu&utm_medium=referral&utm_campaign=vendor-backlink"
      },
      {
        "location_option": "online",
        "link_or_phone_number": "https:\/\/www.just-eat.co.uk\/restaurants-itsu-baker132london\/menu"
      }
    ],
    "single_url": "https:\/\/www.itsu.com\/location\/baker-street-132-2\/"
  },
  {
    "title": "Southwark Street 65 (Bankside)",
    "address_1": "The Harlequin Building, 65 Southwark Street",
    "address_2": "",
    "city": "London",
    "state": "",
    "postal_code": "SE1 0HR",
    "country": "UK",
    "telephone": "0203-268-2175",
    "latitude": "51.505162",
    "longitude": "-0.097300",
    "transit_info": "Southwark",
    "wifi_available": true,
    "hours": [
      {
        "title": "Monday",
        "hours": "10am-9pm",
        "highlight": false
      },
      {
        "title": "Tuesday",
        "hours": "10am-9pm",
        "highlight": false
      },
      {
        "title": "Wednesday",
        "hours": "10am-9pm",
        "highlight": false
      },
      {
        "title": "Thursday",
        "hours": "10am-9pm",
        "highlight": false
      },
      {
        "title": "Friday",
        "hours": "10am-9pm",
        "highlight": false
      },
      {
        "title": "Saturday",
        "hours": "11am-6pm",
        "highlight": false
      },
      {
        "title": "Sunday",
        "hours": "11am-6pm",
        "highlight": false
      },
      {
        "title": "On Sunday 21st July ",
        "hours": "we will be closed all day due to building maintenance work",
        "highlight": true
      },
      {
        "title": "half price sale starts",
        "hours": "30 mins prior to close",
        "highlight": false
      },
      {
        "title": "beer & bowl deal available",
        "hours": "",
        "highlight": false
      }
    ],
    "delivery_options": [
      {
        "location_option": "online",
        "link_or_phone_number": "https:\/\/deliveroo.co.uk\/brands\/itsu\/?utm_medium=backlink&utm_source=itsu&utm_campaign=webreferral"
      },
      {
        "location_option": "online",
        "link_or_phone_number": "https:\/\/www.just-eat.co.uk\/restaurants-itsu-southwarkstreet\/menu"
      }
    ],
    "single_url": "https:\/\/www.itsu.com\/location\/bankside\/"
  },
  {
    "title": "Berkeley Square 55",
    "address_1": "Lansdowne House, 55 Berkeley Square",
    "address_2": "Unit 4",
    "city": "London",
    "state": "",
    "postal_code": "W1J 6ER",
    "country": "UK",
    "telephone": "0207-499-4938",
    "latitude": "51.508737",
    "longitude": "-0.144660",
    "transit_info": "Green Park",
    "wifi_available": true,
    "hours": [
      {
        "title": "Monday",
        "hours": "10am - 8:30pm",
        "highlight": false
      },
      {
        "title": "Tuesday",
        "hours": "10am - 8:30pm",
        "highlight": false
      },
      {
        "title": "Wednesday",
        "hours": "10am - 8:30pm",
        "highlight": false
      },
      {
        "title": "Thursday",
        "hours": "10am - 8:30pm",
        "highlight": false
      },
      {
        "title": "Friday",
        "hours": "10am - 8:30pm",
        "highlight": false
      },
      {
        "title": "Saturday",
        "hours": "11am - 7pm",
        "highlight": false
      },
      {
        "title": "Sunday",
        "hours": "11am - 5pm",
        "highlight": false
      },
      {
        "title": "half price sale starts",
        "hours": "30 mins prior to close",
        "highlight": true
      }
    ],
    "delivery_options": [],
    "single_url": "https:\/\/www.itsu.com\/location\/berkeley-square\/"
  },
  {
    "title": "Bicester Village",
    "address_1": "50 Pingle Drive, Bicester",
    "address_2": "Unit 21a",
    "city": "Oxfordshire",
    "state": "",
    "postal_code": "OX26 6WD",
    "country": "UK",
    "telephone": "01869-220-807",
    "latitude": "51.891236",
    "longitude": "-1.154252",
    "transit_info": "",
    "wifi_available": true,
    "hours": [
      {
        "title": "As per Bicester village",
        "hours": "",
        "highlight": true
      }
    ],
    "delivery_options": [],
    "single_url": "https:\/\/www.itsu.com\/location\/bicester-village\/"
  },
  {
    "title": "Brighton North Street",
    "address_1": "68-70 North Street",
    "address_2": "",
    "city": "Brighton",
    "state": "",
    "postal_code": "BN1 1RH",
    "country": "UK",
    "telephone": "01273-830-900",
    "latitude": "50.823429",
    "longitude": "-0.143426",
    "transit_info": "",
    "wifi_available": true,
    "hours": [
      {
        "title": "Monday",
        "hours": "10am - 10pm",
        "highlight": false
      },
      {
        "title": "Tuesday",
        "hours": "10am - 10pm",
        "highlight": false
      },
      {
        "title": "Wednesday",
        "hours": "10am - 10pm",
        "highlight": false
      },
      {
        "title": "Thursday",
        "hours": "10am - 10pm",
        "highlight": false
      },
      {
        "title": "Friday",
        "hours": "10am - 10pm",
        "highlight": false
      },
      {
        "title": "Saturday",
        "hours": "10am - 10pm",
        "highlight": false
      },
      {
        "title": "Sunday",
        "hours": "11am - 10pm",
        "highlight": false
      },
      {
        "title": "half price sale starts",
        "hours": "30 mins prior to close",
        "highlight": true
      },
      {
        "title": "beer & bowl deal available",
        "hours": "",
        "highlight": true
      }
    ],
    "delivery_options": [
      {
        "location_option": "deliveroo",
        "link_or_phone_number": "https:\/\/deliveroo.co.uk\/brands\/itsu\/?utm_medium=backlink&utm_source=itsu&utm_campaign=webreferral"
      },
      {
        "location_option": "uber_eats",
        "link_or_phone_number": "https:\/\/www.ubereats.com\/en-GB\/brighton-and-sussex\/food-delivery\/itsu-north-street\/I8mTgyDpTDOBHgDR4oWU7w\/"
      }
    ],
    "single_url": "https:\/\/www.itsu.com\/location\/brighton\/"
  },
  {
    "title": "Bristol Broadmead",
    "address_1": "2-4 Broadmead, Bristol",
    "address_2": "",
    "city": "Bristol",
    "state": "",
    "postal_code": "BS1 3HH",
    "country": "UK",
    "telephone": "0117-4289-195",
    "latitude": "51.458365",
    "longitude": "-2.587287",
    "transit_info": "",
    "wifi_available": true,
    "hours": [
      {
        "title": "Monday",
        "hours": "10am-10pm",
        "highlight": false
      },
      {
        "title": "Tuesday",
        "hours": "10am-10pm",
        "highlight": false
      },
      {
        "title": "Wednesday",
        "hours": "10am-10pm",
        "highlight": false
      },
      {
        "title": "Thursday",
        "hours": "10am-10pm",
        "highlight": false
      },
      {
        "title": "Friday",
        "hours": "10am-10pm",
        "highlight": false
      },
      {
        "title": "Saturday",
        "hours": "10am-10pm",
        "highlight": false
      },
      {
        "title": "Sunday",
        "hours": "11am-10pm",
        "highlight": false
      },
      {
        "title": "half price sale starts",
        "hours": "30 mins prior to close",
        "highlight": true
      },
      {
        "title": "beer & bowl deal available",
        "hours": "",
        "highlight": true
      }
    ],
    "delivery_options": [
      {
        "location_option": "deliveroo",
        "link_or_phone_number": "https:\/\/deliveroo.co.uk\/brands\/itsu\/?utm_medium=backlink&utm_source=itsu&utm_campaign=webreferral"
      },
      {
        "location_option": "uber_eats",
        "link_or_phone_number": "https:\/\/www.ubereats.com\/en-GB\/bristol\/food-delivery\/itsu-bristol-broadmead\/Hc_nxgW2S6i8BGu3OaPByg\/"
      },
      {
        "location_option": "online",
        "link_or_phone_number": "https:\/\/www.just-eat.co.uk\/restaurants-itsu-bristol\/menu"
      }
    ],
    "single_url": "https:\/\/www.itsu.com\/location\/bristol\/"
  },
  {
    "title": "Broadwick Street 31",
    "address_1": "31 Broadwick Street",
    "address_2": "",
    "city": "London",
    "state": "",
    "postal_code": "W1F 0DG",
    "country": "UK",
    "telephone": "0207-734-8291",
    "latitude": "51.513372",
    "longitude": "-0.136099",
    "transit_info": "Oxford Circus",
    "wifi_available": true,
    "hours": [
      {
        "title": "Monday",
        "hours": "10am - 9pm",
        "highlight": false
      },
      {
        "title": "Tuesday",
        "hours": "10am - 9pm",
        "highlight": false
      },
      {
        "title": "Wednesday",
        "hours": "10am - 9pm",
        "highlight": false
      },
      {
        "title": "Thursday",
        "hours": "10am - 9pm",
        "highlight": false
      },
      {
        "title": "Friday",
        "hours": "10am - 9pm",
        "highlight": false
      },
      {
        "title": "Saturday",
        "hours": "11am - 8pm",
        "highlight": false
      },
      {
        "title": "Sunday",
        "hours": "12pm - 7pm",
        "highlight": false
      },
      {
        "title": "half price sale starts",
        "hours": "30 mins prior to close",
        "highlight": true
      }
    ],
    "delivery_options": [],
    "single_url": "https:\/\/www.itsu.com\/location\/broadwick-street\/"
  },
  {
    "title": "Brunswick Centre",
    "address_1": "Brunswick Centre",
    "address_2": "Unit 16",
    "city": "London",
    "state": "",
    "postal_code": "WC1N 1AF",
    "country": "UK",
    "telephone": "0207-833-3347",
    "latitude": "51.524020",
    "longitude": "-0.123532",
    "transit_info": "Euston Square",
    "wifi_available": true,
    "hours": [
      {
        "title": "Monday",
        "hours": "11am - 10pm",
        "highlight": false
      },
      {
        "title": "Tuesday",
        "hours": "11am - 10pm",
        "highlight": false
      },
      {
        "title": "Wednesday",
        "hours": "11am - 10pm",
        "highlight": false
      },
      {
        "title": "Thursday",
        "hours": "11am - 10pm",
        "highlight": false
      },
      {
        "title": "Friday",
        "hours": "11am - 10pm",
        "highlight": false
      },
      {
        "title": "Saturday",
        "hours": "11pm - 8pm",
        "highlight": false
      },
      {
        "title": "Sunday",
        "hours": "11pm - 8pm",
        "highlight": false
      },
      {
        "title": "half price sale starts",
        "hours": "30 mins prior to close",
        "highlight": true
      }
    ],
    "delivery_options": [
      {
        "location_option": "deliveroo",
        "link_or_phone_number": "https:\/\/deliveroo.co.uk\/brands\/itsu\/?utm_medium=backlink&utm_source=itsu&utm_campaign=webreferral"
      },
      {
        "location_option": "uber_eats",
        "link_or_phone_number": "https:\/\/www.ubereats.com\/en-GB\/london\/food-delivery\/itsu-brunswick\/-elBUWAdSPy9lpmpKWpQxw\/"
      }
    ],
    "single_url": "https:\/\/www.itsu.com\/location\/brunswick-centre\/"
  },
  {
    "title": "Cambridge Sidney Street",
    "address_1": "16-17 Sidney Street",
    "address_2": "",
    "city": "Cambridge",
    "state": "",
    "postal_code": "CB2 3HG",
    "country": "UK",
    "telephone": "0122-394-1739",
    "latitude": "52.206144",
    "longitude": "0.120822",
    "transit_info": "",
    "wifi_available": true,
    "hours": [
      {
        "title": "Cambridge",
        "hours": "is one of our innovation stores, so we are changing recipes regularly, for the most up to date allergen information please ask a member of our team in store.",
        "highlight": true
      },
      {
        "title": "Monday",
        "hours": "10am - 10pm",
        "highlight": false
      },
      {
        "title": "Tuesday",
        "hours": "10am - 10pm",
        "highlight": false
      },
      {
        "title": "Wednesday",
        "hours": "10am - 10pm",
        "highlight": false
      },
      {
        "title": "Thursday",
        "hours": "10am - 10pm",
        "highlight": false
      },
      {
        "title": "Friday",
        "hours": "10am - 10pm",
        "highlight": false
      },
      {
        "title": "Saturday",
        "hours": "10am - 10pm",
        "highlight": false
      },
      {
        "title": "Sunday",
        "hours": "10:30am - 10pm",
        "highlight": false
      },
      {
        "title": "half price sale starts",
        "hours": "30 mins prior to close",
        "highlight": true
      },
      {
        "title": "beer & bowl deal available",
        "hours": "",
        "highlight": true
      }
    ],
    "delivery_options": [
      {
        "location_option": "deliveroo",
        "link_or_phone_number": "https:\/\/deliveroo.co.uk\/brands\/itsu\/?utm_medium=backlink&utm_source=itsu&utm_campaign=webreferral"
      }
    ],
    "single_url": "https:\/\/www.itsu.com\/location\/cambridge\/"
  },
  {
    "title": "Camden High Street 191",
    "address_1": "191 Camden High Street",
    "address_2": "",
    "city": "London",
    "state": "",
    "postal_code": "NW1 7BT",
    "country": "UK",
    "telephone": "0203-728-2471",
    "latitude": "51.539369",
    "longitude": "-0.143373",
    "transit_info": "Camden Town",
    "wifi_available": true,
    "hours": [
      {
        "title": "Monday",
        "hours": "10am - 10pm",
        "highlight": false
      },
      {
        "title": "Tuesday",
        "hours": "10am - 10pm",
        "highlight": false
      },
      {
        "title": "Wednesday",
        "hours": "10am - 10pm",
        "highlight": false
      },
      {
        "title": "Thursday",
        "hours": "10am - 10pm",
        "highlight": false
      },
      {
        "title": "Friday",
        "hours": "10am - 10pm",
        "highlight": false
      },
      {
        "title": "Saturday",
        "hours": "10am - 10pm",
        "highlight": false
      },
      {
        "title": "Sunday",
        "hours": "10am - 8pm",
        "highlight": false
      },
      {
        "title": "half price sale starts",
        "hours": "30 mins prior to close",
        "highlight": true
      },
      {
        "title": "beer & bowl deal available",
        "hours": "",
        "highlight": true
      }
    ],
    "delivery_options": [
      {
        "location_option": "deliveroo",
        "link_or_phone_number": "https:\/\/deliveroo.co.uk\/brands\/itsu\/?utm_medium=backlink&utm_source=itsu&utm_campaign=webreferral"
      },
      {
        "location_option": "uber_eats",
        "link_or_phone_number": "https:\/\/www.ubereats.com\/en-GB\/london\/food-delivery\/itsu-camden-high-street\/rZe6cx3VRvO-L8_gsn-W1g\/"
      },
      {
        "location_option": "online",
        "link_or_phone_number": "https:\/\/citypantry.com\/menus\/vendors\/itsu\/menu?utm_source=itsu&utm_medium=referral&utm_campaign=vendor-backlink"
      },
      {
        "location_option": "online",
        "link_or_phone_number": "https:\/\/www.just-eat.co.uk\/restaurants-itsucamdenhigh-street\/menu"
      }
    ],
    "single_url": "https:\/\/www.itsu.com\/location\/camden-high-street\/"
  },
  {
    "title": "Canary Wharf Cabot Place East Level 2",
    "address_1": "Cabot Place East, Canary Wharf",
    "address_2": "Level 2",
    "city": "London",
    "state": "",
    "postal_code": "E14 4QT",
    "country": "UK",
    "telephone": "0207-519-1713",
    "latitude": "51.505202",
    "longitude": "-0.022032",
    "transit_info": "Canary Wharf",
    "wifi_available": true,
    "hours": [
      {
        "title": "Monday",
        "hours": "10.30am - 9pm",
        "highlight": false
      },
      {
        "title": "Tuesday",
        "hours": "10.30am - 9pm",
        "highlight": false
      },
      {
        "title": "Wednesday",
        "hours": "10.30am - 9pm",
        "highlight": false
      },
      {
        "title": "Thursday",
        "hours": "10.30am - 9pm",
        "highlight": false
      },
      {
        "title": "Friday",
        "hours": "10.30am - 9pm",
        "highlight": false
      },
      {
        "title": "Saturday",
        "hours": "closed",
        "highlight": false
      },
      {
        "title": "Sunday",
        "hours": "closed",
        "highlight": false
      },
      {
        "title": "half price sale starts",
        "hours": "30 mins prior to close",
        "highlight": true
      }
    ],
    "delivery_options": [
      {
        "location_option": "call",
        "link_or_phone_number": "+44 (0) 207 584 5522"
      },
      {
        "location_option": "online",
        "link_or_phone_number": "http:\/\/orders-itsu.com"
      },
      {
        "location_option": "deliveroo",
        "link_or_phone_number": "https:\/\/deliveroo.co.uk\/brands\/itsu\/?utm_medium=backlink&utm_source=itsu&utm_campaign=webreferral"
      },
      {
        "location_option": "uber_eats",
        "link_or_phone_number": "https:\/\/www.ubereats.com\/stores\/"
      },
      {
        "location_option": "online",
        "link_or_phone_number": "https:\/\/citypantry.com\/menus\/vendors\/itsu\/menu?utm_source=itsu&utm_medium=referral&utm_campaign=vendor-backlink"
      },
      {
        "location_option": "online",
        "link_or_phone_number": "https:\/\/www.just-eat.co.uk\/restaurants-itsu-cabotplace\/menu"
      }
    ],
    "single_url": "https:\/\/www.itsu.com\/location\/canary-wharf-cabot-place-level-3\/"
  },
  {
    "title": "Canary Wharf Canada Place",
    "address_1": "Canary Wharf Canada Place",
    "address_2": "",
    "city": "London",
    "state": "",
    "postal_code": "E14 5EQ",
    "country": "UK",
    "telephone": "0207-512-6796",
    "latitude": "51.504954",
    "longitude": "-0.019450",
    "transit_info": "Canary Wharf",
    "wifi_available": true,
    "hours": [
      {
        "title": "Monday",
        "hours": "10.30am - 8pm",
        "highlight": false
      },
      {
        "title": "Tuesday",
        "hours": "10.30am - 8pm",
        "highlight": false
      },
      {
        "title": "Wednesday",
        "hours": "10.30am - 8pm",
        "highlight": false
      },
      {
        "title": "Thursday",
        "hours": "10.30am - 8pm",
        "highlight": false
      },
      {
        "title": "Friday",
        "hours": "10.30am - 8pm",
        "highlight": false
      },
      {
        "title": "Saturday",
        "hours": "12pm - 5pm",
        "highlight": false
      },
      {
        "title": "Sunday",
        "hours": "12pm - 5pm",
        "highlight": false
      },
      {
        "title": "half price sale starts",
        "hours": "30 mins prior to close",
        "highlight": true
      }
    ],
    "delivery_options": [
      {
        "location_option": "deliveroo",
        "link_or_phone_number": "https:\/\/deliveroo.co.uk\/brands\/itsu\/?utm_medium=backlink&utm_source=itsu&utm_campaign=webreferral"
      },
      {
        "location_option": "uber_eats",
        "link_or_phone_number": "https:\/\/www.ubereats.com\/en-GB\/london\/food-delivery\/itsu-canary-wharf\/9Xy-JUiwR0mJceUCNNMGwg\/"
      },
      {
        "location_option": "online",
        "link_or_phone_number": "https:\/\/citypantry.com\/menus\/vendors\/itsu\/menu?utm_source=itsu&utm_medium=referral&utm_campaign=vendor-backlink"
      }
    ],
    "single_url": "https:\/\/www.itsu.com\/location\/canary-wharf-canada-place-deli-1\/"
  },
  {
    "title": "Canary Wharf Churchill Place",
    "address_1": "Canada Place Mall, Canary Wharf",
    "address_2": "",
    "city": "London",
    "state": "",
    "postal_code": "E14 5EQ",
    "country": "UK",
    "telephone": "0203-278-2467",
    "latitude": "51.504954",
    "longitude": "-0.019450",
    "transit_info": "Canary Wharf",
    "wifi_available": true,
    "hours": [
      {
        "title": "Monday",
        "hours": "10.30am - 9pm",
        "highlight": false
      },
      {
        "title": "Tuesday",
        "hours": "10.30am - 9pm",
        "highlight": false
      },
      {
        "title": "Wednesday",
        "hours": "10.30am - 9pm",
        "highlight": false
      },
      {
        "title": "Thursday",
        "hours": "10.30am - 9pm",
        "highlight": false
      },
      {
        "title": "Friday",
        "hours": "10.30am - 9pm",
        "highlight": false
      },
      {
        "title": "Saturday",
        "hours": "12pm - 5pm",
        "highlight": false
      },
      {
        "title": "Sunday",
        "hours": "12pm - 5pm",
        "highlight": false
      },
      {
        "title": "half price sale starts",
        "hours": "30 mins prior to close",
        "highlight": true
      }
    ],
    "delivery_options": [
      {
        "location_option": "online",
        "link_or_phone_number": "https:\/\/citypantry.com\/menus\/vendors\/itsu\/menu?utm_source=itsu&utm_medium=referral&utm_campaign=vendor-backlink"
      }
    ],
    "single_url": "https:\/\/www.itsu.com\/location\/canary-wharf-canada-place-deli-2\/"
  },
  {
    "title": "Cannon Street 30",
    "address_1": "30-40 Cannon Street",
    "address_2": "",
    "city": "London",
    "state": "",
    "postal_code": "EC4N 6JD",
    "country": "UK",
    "telephone": "0207-248-3474",
    "latitude": "51.512175",
    "longitude": "-0.093615",
    "transit_info": "Mansion House",
    "wifi_available": true,
    "hours": [
      {
        "title": "Monday",
        "hours": "11am - 8pm",
        "highlight": false
      },
      {
        "title": "Tuesday",
        "hours": "11am - 8pm",
        "highlight": false
      },
      {
        "title": "Wednesday",
        "hours": "11am - 8pm",
        "highlight": false
      },
      {
        "title": "Thursday",
        "hours": "11am - 8pm",
        "highlight": false
      },
      {
        "title": "Friday",
        "hours": "11am - 8pm",
        "highlight": false
      },
      {
        "title": "Saturday",
        "hours": "closed",
        "highlight": false
      },
      {
        "title": "Sunday",
        "hours": "closed",
        "highlight": false
      },
      {
        "title": "half price sale starts",
        "hours": "30 mins prior to close",
        "highlight": true
      }
    ],
    "delivery_options": [],
    "single_url": "https:\/\/www.itsu.com\/location\/cannon-street\/"
  },
  {
    "title": "Chancery Lane",
    "address_1": "19 Holborn",
    "address_2": "",
    "city": "London",
    "state": "",
    "postal_code": "EC1N 2JD",
    "country": "UK",
    "telephone": "0207-493-1934",
    "latitude": "51.517733",
    "longitude": "-0.109736",
    "transit_info": "Chancery Lane",
    "wifi_available": true,
    "hours": [
      {
        "title": "Monday",
        "hours": "11am - 9pm",
        "highlight": false
      },
      {
        "title": "Tuesday",
        "hours": "11am - 9pm",
        "highlight": false
      },
      {
        "title": "Wednesday",
        "hours": "11am - 9pm",
        "highlight": false
      },
      {
        "title": "Thursday",
        "hours": "11am - 9pm",
        "highlight": false
      },
      {
        "title": "Friday",
        "hours": "11am - 9pm",
        "highlight": false
      },
      {
        "title": "Saturday",
        "hours": "closed",
        "highlight": false
      },
      {
        "title": "Sunday",
        "hours": "closed",
        "highlight": false
      },
      {
        "title": "half price sale starts",
        "hours": "30 mins prior to close",
        "highlight": true
      }
    ],
    "delivery_options": [
      {
        "location_option": "call",
        "link_or_phone_number": "+44 (0) 207 584 5522"
      },
      {
        "location_option": "online",
        "link_or_phone_number": "http:\/\/orders-itsu.com"
      },
      {
        "location_option": "online",
        "link_or_phone_number": "https:\/\/www.just-eat.co.uk\/restaurants-itsuchancerylane-london\/menu"
      }
    ],
    "single_url": "https:\/\/www.itsu.com\/location\/chancery-lane\/"
  },
  {
    "title": "Cheapside 107",
    "address_1": "107 Cheapside",
    "address_2": "Unit A",
    "city": "London",
    "state": "",
    "postal_code": "EC2V 6DN",
    "country": "UK",
    "telephone": "0207-726-2373",
    "latitude": "51.514309",
    "longitude": "-0.093562",
    "transit_info": "St Paul's",
    "wifi_available": true,
    "hours": [
      {
        "title": "Monday",
        "hours": "10am-9pm",
        "highlight": false
      },
      {
        "title": "Tuesday",
        "hours": "10am-9pm",
        "highlight": false
      },
      {
        "title": "Wednesday",
        "hours": "10am-9pm",
        "highlight": false
      },
      {
        "title": "Thursday",
        "hours": "10am-9pm",
        "highlight": false
      },
      {
        "title": "Friday",
        "hours": "10am-9pm",
        "highlight": false
      },
      {
        "title": "Saturday",
        "hours": "closed",
        "highlight": false
      },
      {
        "title": "Sunday",
        "hours": "closed",
        "highlight": false
      },
      {
        "title": "half price sale starts",
        "hours": "30 mins prior to close",
        "highlight": true
      }
    ],
    "delivery_options": [],
    "single_url": "https:\/\/www.itsu.com\/location\/cheapside\/"
  },
  {
    "title": "Copthall Avenue 2",
    "address_1": "2 Copthall Avenue",
    "address_2": "",
    "city": "London",
    "state": "",
    "postal_code": "EC2R 7BH",
    "country": "UK",
    "telephone": "0207-256-2509",
    "latitude": "51.515804",
    "longitude": "-0.087721",
    "transit_info": "Moorgate",
    "wifi_available": true,
    "hours": [
      {
        "title": "Monday",
        "hours": "11am - 7pm",
        "highlight": false
      },
      {
        "title": "Tuesday",
        "hours": "11am - 7pm",
        "highlight": false
      },
      {
        "title": "Wednesday",
        "hours": "11am -7pm",
        "highlight": false
      },
      {
        "title": "Thursday",
        "hours": "11am -7pm",
        "highlight": false
      },
      {
        "title": "Friday",
        "hours": "11am - 7pm",
        "highlight": false
      },
      {
        "title": "Saturday",
        "hours": "closed",
        "highlight": false
      },
      {
        "title": "Sunday",
        "hours": "closed",
        "highlight": false
      },
      {
        "title": "half price sale starts",
        "hours": "30 mins prior to close",
        "highlight": true
      }
    ],
    "delivery_options": [],
    "single_url": "https:\/\/www.itsu.com\/location\/copthall-avenue\/"
  },
  {
    "title": "Cowcross Street 9",
    "address_1": "9-13 Cowcross Street",
    "address_2": "",
    "city": "London",
    "state": "",
    "postal_code": "EC1M 6DR",
    "country": "UK",
    "telephone": "0207-253-2811",
    "latitude": "51.520190",
    "longitude": "-0.102780",
    "transit_info": "Farringdon",
    "wifi_available": true,
    "hours": [
      {
        "title": "Monday",
        "hours": "11am - 8pm",
        "highlight": false
      },
      {
        "title": "Tuesday",
        "hours": "11am - 8pm",
        "highlight": false
      },
      {
        "title": "Wednesday",
        "hours": "11am - 8pm",
        "highlight": false
      },
      {
        "title": "Thursday",
        "hours": "11am - 8pm",
        "highlight": false
      },
      {
        "title": "Friday",
        "hours": "11am - 8pm",
        "highlight": false
      },
      {
        "title": "Saturday",
        "hours": "closed",
        "highlight": false
      },
      {
        "title": "Sunday",
        "hours": "closed",
        "highlight": false
      },
      {
        "title": "half price sale starts",
        "hours": "30 mins prior to close",
        "highlight": true
      }
    ],
    "delivery_options": [],
    "single_url": "https:\/\/www.itsu.com\/location\/cowcross-street\/"
  },
  {
    "title": "Eastcastle Street 38",
    "address_1": "38-40 Eastcastle Street",
    "address_2": "",
    "city": "London",
    "state": "",
    "postal_code": "W1W 8DT",
    "country": "UK",
    "telephone": "0203-657-7051",
    "latitude": "51.516534",
    "longitude": "-0.139335",
    "transit_info": "Oxford Circus",
    "wifi_available": true,
    "hours": [
      {
        "title": "Monday",
        "hours": "11am - 9pm",
        "highlight": false
      },
      {
        "title": "Tuesday",
        "hours": "11am - 9pm",
        "highlight": false
      },
      {
        "title": "Wednesday",
        "hours": "11am - 9pm",
        "highlight": false
      },
      {
        "title": "Thursday",
        "hours": "11am - 9pm",
        "highlight": false
      },
      {
        "title": "Friday",
        "hours": "11am - 9pm",
        "highlight": false
      },
      {
        "title": "Saturday",
        "hours": "11am - 8pm",
        "highlight": false
      },
      {
        "title": "Sunday",
        "hours": "12pm - 6pm",
        "highlight": false
      },
      {
        "title": "half price sale starts",
        "hours": "30 mins prior to close",
        "highlight": true
      },
      {
        "title": "beer & bowl deal available",
        "hours": "",
        "highlight": true
      }
    ],
    "delivery_options": [
      {
        "location_option": "deliveroo",
        "link_or_phone_number": "https:\/\/deliveroo.co.uk\/brands\/itsu\/?utm_medium=backlink&utm_source=itsu&utm_campaign=webreferral"
      },
      {
        "location_option": "uber_eats",
        "link_or_phone_number": "https:\/\/www.ubereats.com\/en-GB\/london\/food-rdelivey\/itsu-eastcastle\/wmc7XmsVRXmWJ2crtzBEGg\/"
      }
    ],
    "single_url": "https:\/\/www.itsu.com\/location\/eastcastle-street\/"
  },
  {
    "title": "Euston Station Piazza",
    "address_1": "Euston Piazza",
    "address_2": "",
    "city": "London",
    "state": "",
    "postal_code": "NW1 2DU",
    "country": "UK",
    "telephone": "0203-814-8659",
    "latitude": "51.527843",
    "longitude": "-0.133172",
    "transit_info": "Euston",
    "wifi_available": true,
    "hours": [
      {
        "title": "Monday",
        "hours": "7am - 11pm",
        "highlight": false
      },
      {
        "title": "Tuesday",
        "hours": "7am - 11pm",
        "highlight": false
      },
      {
        "title": "Wednesday",
        "hours": "7am - 11pm",
        "highlight": false
      },
      {
        "title": "Thursday",
        "hours": "7am - 11pm",
        "highlight": false
      },
      {
        "title": "Friday",
        "hours": "7am - 11pm",
        "highlight": false
      },
      {
        "title": "Saturday",
        "hours": "7am - 10pm",
        "highlight": false
      },
      {
        "title": "Sunday",
        "hours": "8am - 10pm",
        "highlight": false
      },
      {
        "title": "half price sale starts",
        "hours": "30 mins prior to close",
        "highlight": true
      }
    ],
    "delivery_options": [],
    "single_url": "https:\/\/www.itsu.com\/location\/euston-station\/"
  },
  {
    "title": "Finsbury Square 1",
    "address_1": "1 Finsbury Square",
    "address_2": "",
    "city": "London",
    "state": "",
    "postal_code": "EC2A 1AE",
    "country": "UK",
    "telephone": "0207-256-8706",
    "latitude": "51.520794",
    "longitude": "-0.087735",
    "transit_info": "Moorgate",
    "wifi_available": true,
    "hours": [
      {
        "title": "Monday",
        "hours": "10am-9pm",
        "highlight": false
      },
      {
        "title": "Tuesday",
        "hours": "10am-9pm",
        "highlight": false
      },
      {
        "title": "Wednesday",
        "hours": "10am-9pm",
        "highlight": false
      },
      {
        "title": "Thursday",
        "hours": "10am-9pm",
        "highlight": false
      },
      {
        "title": "Friday",
        "hours": "10am-9pm",
        "highlight": false
      },
      {
        "title": "Saturday",
        "hours": "closed",
        "highlight": false
      },
      {
        "title": "Sunday",
        "hours": "closed",
        "highlight": false
      },
      {
        "title": "half price sale starts",
        "hours": "30 mins prior to close",
        "highlight": true
      }
    ],
    "delivery_options": [],
    "single_url": "https:\/\/www.itsu.com\/location\/finsbury-square\/"
  },
  {
    "title": "Fleet Street 130",
    "address_1": "130 Fleet Street",
    "address_2": "",
    "city": "London",
    "state": "",
    "postal_code": "EC4A 2BH",
    "country": "UK",
    "telephone": "0207-936-3171",
    "latitude": "51.514367",
    "longitude": "-0.106628",
    "transit_info": "St Pauls",
    "wifi_available": true,
    "hours": [
      {
        "title": "Monday",
        "hours": "10am-9pm",
        "highlight": false
      },
      {
        "title": "Tuesday",
        "hours": "10am-9pm",
        "highlight": false
      },
      {
        "title": "Wednesday",
        "hours": "10am-9pm",
        "highlight": false
      },
      {
        "title": "Thursday",
        "hours": "10am-9pm",
        "highlight": false
      },
      {
        "title": "Friday",
        "hours": "10am-9pm",
        "highlight": false
      },
      {
        "title": "Saturday",
        "hours": "closed",
        "highlight": false
      },
      {
        "title": "Sunday",
        "hours": "closed",
        "highlight": false
      },
      {
        "title": "half price sale starts",
        "hours": "30 mins prior to close",
        "highlight": true
      }
    ],
    "delivery_options": [
      {
        "location_option": "deliveroo",
        "link_or_phone_number": "https:\/\/deliveroo.co.uk\/brands\/itsu\/?utm_medium=backlink&utm_source=itsu&utm_campaign=webreferral"
      },
      {
        "location_option": "uber_eats",
        "link_or_phone_number": "https:\/\/www.ubereats.com\/en-GB\/london\/food-delivery\/itsu-fleet-street\/wUQOe-N9QzWpCE_BjwxSjA\/"
      }
    ],
    "single_url": "https:\/\/www.itsu.com\/location\/fleet-street-130\/"
  },
  {
    "title": "Fleet Street 191",
    "address_1": "191-192 Fleet Street",
    "address_2": "",
    "city": "London",
    "state": "",
    "postal_code": "EC4A 2NJ",
    "country": "UK",
    "telephone": "0203-764-9404",
    "latitude": "51.514066",
    "longitude": "-0.110962",
    "transit_info": "Temple",
    "wifi_available": true,
    "hours": [
      {
        "title": "Monday",
        "hours": "10am - 9pm",
        "highlight": false
      },
      {
        "title": "Tuesday",
        "hours": "10am - 9pm",
        "highlight": false
      },
      {
        "title": "Wednesday",
        "hours": "10am - 9pm",
        "highlight": false
      },
      {
        "title": "Thursday",
        "hours": "10am - 9pm",
        "highlight": false
      },
      {
        "title": "Friday",
        "hours": "10am - 9pm",
        "highlight": false
      },
      {
        "title": "Saturday",
        "hours": "closed",
        "highlight": false
      },
      {
        "title": "Sunday",
        "hours": "closed",
        "highlight": false
      },
      {
        "title": "half price sale starts",
        "hours": "30 mins prior to close",
        "highlight": true
      }
    ],
    "delivery_options": [
      {
        "location_option": "deliveroo",
        "link_or_phone_number": "https:\/\/deliveroo.co.uk\/brands\/itsu\/?utm_medium=backlink&utm_source=itsu&utm_campaign=webreferral"
      },
      {
        "location_option": "uber_eats",
        "link_or_phone_number": "https:\/\/www.ubereats.com\/en-GB\/london\/food-delivery\/itsu-fleet-street\/wUQOe-N9QzWpCE_BjwxSjA\/"
      }
    ],
    "single_url": "https:\/\/www.itsu.com\/location\/fleet-street-191\/"
  },
  {
    "title": "Great Queen Street 41",
    "address_1": "41-44 Great Queen Street",
    "address_2": "",
    "city": "London",
    "state": "",
    "postal_code": "WC2B 5AD",
    "country": "UK",
    "telephone": "0207-430-2696",
    "latitude": "51.514894",
    "longitude": "-0.122154",
    "transit_info": "Holborn",
    "wifi_available": true,
    "hours": [
      {
        "title": "Monday",
        "hours": "10am - 9pm",
        "highlight": false
      },
      {
        "title": "Tuesday",
        "hours": "10am - 9pm",
        "highlight": false
      },
      {
        "title": "Wednesday",
        "hours": "10am - 9pm",
        "highlight": false
      },
      {
        "title": "Thursday",
        "hours": "10am - 9pm",
        "highlight": false
      },
      {
        "title": "Friday",
        "hours": "10am - 9pm",
        "highlight": false
      },
      {
        "title": "Saturday",
        "hours": "11am - 9pm",
        "highlight": false
      },
      {
        "title": "Sunday",
        "hours": "12pm - 7pm",
        "highlight": false
      },
      {
        "title": "half price sale starts",
        "hours": "30 mins prior to close",
        "highlight": true
      }
    ],
    "delivery_options": [],
    "single_url": "https:\/\/www.itsu.com\/location\/great-queen-street\/"
  },
  {
    "title": "Gracechurch Street 21",
    "address_1": "21 Gracechurch Street",
    "address_2": "",
    "city": "London",
    "state": "",
    "postal_code": "EC3V 0BG",
    "country": "UK",
    "telephone": "0207-283-3302",
    "latitude": "51.512217",
    "longitude": "-0.085216",
    "transit_info": "Monument",
    "wifi_available": true,
    "hours": [
      {
        "title": "Monday",
        "hours": "11am-9pm",
        "highlight": false
      },
      {
        "title": "Tuesday",
        "hours": "11am-9pm",
        "highlight": false
      },
      {
        "title": "Wednesday",
        "hours": "11am-9pm",
        "highlight": false
      },
      {
        "title": "Thursday",
        "hours": "11am-9pm",
        "highlight": false
      },
      {
        "title": "Friday",
        "hours": "11am-9pm",
        "highlight": false
      },
      {
        "title": "Saturday",
        "hours": "closed",
        "highlight": false
      },
      {
        "title": "Sunday",
        "hours": "closed",
        "highlight": false
      },
      {
        "title": "half price sale starts",
        "hours": "30 mins prior to close",
        "highlight": true
      }
    ],
    "delivery_options": [
      {
        "location_option": "deliveroo",
        "link_or_phone_number": "https:\/\/deliveroo.co.uk\/brands\/itsu\/?utm_medium=backlink&utm_source=itsu&utm_campaign=webreferral"
      },
      {
        "location_option": "uber_eats",
        "link_or_phone_number": "https:\/\/www.ubereats.com\/en-GB\/london\/food-delivery\/itsu-gracechurch-street\/z8sJKzb_TkWfwlZlfN1C0Q\/"
      }
    ],
    "single_url": "https:\/\/www.itsu.com\/location\/gracechurch-street\/"
  },
  {
    "title": "Great Eastern Street 49",
    "address_1": "49-51 Great Eastern Street",
    "address_2": "",
    "city": "London",
    "state": "",
    "postal_code": "EC2A 3HP",
    "country": "UK",
    "telephone": "0207-033-9669",
    "latitude": "51.524425",
    "longitude": "-0.080724",
    "transit_info": "Shoreditch High Street",
    "wifi_available": true,
    "hours": [
      {
        "title": "Monday",
        "hours": "10am - 9pm",
        "highlight": false
      },
      {
        "title": "Tuesday",
        "hours": "10am - 9pm",
        "highlight": false
      },
      {
        "title": "Wednesday",
        "hours": "10am - 9pm",
        "highlight": false
      },
      {
        "title": "Thursday",
        "hours": "10am - 9pm",
        "highlight": false
      },
      {
        "title": "Friday",
        "hours": "10am - 9pm",
        "highlight": false
      },
      {
        "title": "Saturday",
        "hours": "11am - 6pm",
        "highlight": false
      },
      {
        "title": "Sunday",
        "hours": "closed",
        "highlight": false
      },
      {
        "title": "half price sale starts",
        "hours": "30 mins prior to close",
        "highlight": true
      },
      {
        "title": "beer & bowl deal available",
        "hours": "",
        "highlight": true
      }
    ],
    "delivery_options": [],
    "single_url": "https:\/\/www.itsu.com\/location\/great-eastern-street\/"
  },
  {
    "title": "Great Peter Street 16",
    "address_1": "16 Great Peter Street",
    "address_2": "",
    "city": "London",
    "state": "",
    "postal_code": "SW1P 2BX",
    "country": "UK",
    "telephone": "020-7222-6846",
    "latitude": "51.497036",
    "longitude": "-0.129645",
    "transit_info": "St Jame's Park",
    "wifi_available": true,
    "hours": [
      {
        "title": "Monday",
        "hours": "10am - 9pm",
        "highlight": false
      },
      {
        "title": "Tuesday",
        "hours": "10am - 9pm",
        "highlight": false
      },
      {
        "title": "Wednesday",
        "hours": "10am - 9pm",
        "highlight": false
      },
      {
        "title": "Thursday",
        "hours": "10am - 9pm",
        "highlight": false
      },
      {
        "title": "Friday",
        "hours": "10am - 9pm",
        "highlight": false
      },
      {
        "title": "Saturday",
        "hours": "11am - 7pm",
        "highlight": false
      },
      {
        "title": "Sunday",
        "hours": "12pm - 7pm",
        "highlight": false
      },
      {
        "title": "half price sale starts",
        "hours": "30 mins prior to close",
        "highlight": true
      }
    ],
    "delivery_options": [
      {
        "location_option": "deliveroo",
        "link_or_phone_number": "https:\/\/deliveroo.co.uk\/brands\/itsu\/?utm_medium=backlink&utm_source=itsu&utm_campaign=webreferral"
      },
      {
        "location_option": "uber_eats",
        "link_or_phone_number": "https:\/\/www.ubereats.com\/en-GB\/london\/food-delivery\/itsu-great-peter-street\/E4NhB3_bQye9vU_qN9oZag\/"
      }
    ],
    "single_url": "https:\/\/www.itsu.com\/location\/great-peter-street\/"
  },
  {
    "title": "Grosvenor Street 4",
    "address_1": "4-6 Grosvenor Street",
    "address_2": "",
    "city": "London",
    "state": "",
    "postal_code": "W1K 4PX",
    "country": "UK",
    "telephone": "0203-657-7037",
    "latitude": "51.512184",
    "longitude": "-0.145372",
    "transit_info": "Bond Street",
    "wifi_available": true,
    "hours": [
      {
        "title": "Monday",
        "hours": "10am - 8pm",
        "highlight": false
      },
      {
        "title": "Tuesday",
        "hours": "10am - 8pm",
        "highlight": false
      },
      {
        "title": "Wednesday",
        "hours": "10am - 8pm",
        "highlight": false
      },
      {
        "title": "Thursday",
        "hours": "10am - 8pm",
        "highlight": false
      },
      {
        "title": "Friday",
        "hours": "10am - 8pm",
        "highlight": false
      },
      {
        "title": "Saturday",
        "hours": "11am - 7pm",
        "highlight": false
      },
      {
        "title": "Sunday",
        "hours": "11am - 5pm",
        "highlight": false
      },
      {
        "title": "half price sale starts",
        "hours": "30 mins prior to close",
        "highlight": true
      }
    ],
    "delivery_options": [],
    "single_url": "https:\/\/www.itsu.com\/location\/grosvenor-street\/"
  },
  {
    "title": "Hanover Square 1",
    "address_1": "Vogue House, 1 Hanover Square, Mayfair",
    "address_2": "",
    "city": "London",
    "state": "",
    "postal_code": "W1S 1HA",
    "country": "UK",
    "telephone": "0207-491-9799",
    "latitude": "51.513448",
    "longitude": "-0.143107",
    "transit_info": "Oxford Circus",
    "wifi_available": true,
    "hours": [
      {
        "title": "Monday",
        "hours": "11am - 8pm",
        "highlight": false
      },
      {
        "title": "Tuesday",
        "hours": "11am - 8pm",
        "highlight": false
      },
      {
        "title": "Wednesday",
        "hours": "11am - 8pm",
        "highlight": false
      },
      {
        "title": "Thursday",
        "hours": "11am - 8pm",
        "highlight": false
      },
      {
        "title": "Friday",
        "hours": "11am - 8pm",
        "highlight": false
      },
      {
        "title": "Saturday",
        "hours": "11am - 7pm",
        "highlight": false
      },
      {
        "title": "Sunday",
        "hours": "11am - 7pm",
        "highlight": false
      },
      {
        "title": "half price sale starts",
        "hours": "30 mins prior to close",
        "highlight": true
      }
    ],
    "delivery_options": [],
    "single_url": "https:\/\/www.itsu.com\/location\/hanover-square\/"
  },
  {
    "title": "High Holborn 236",
    "address_1": "236 High Holborn",
    "address_2": "",
    "city": "London",
    "state": "",
    "postal_code": "WC1V 7DN",
    "country": "UK",
    "telephone": "020-7242-0885",
    "latitude": "51.517548",
    "longitude": "-0.119188",
    "transit_info": "Holborn",
    "wifi_available": true,
    "hours": [
      {
        "title": "Monday",
        "hours": "9am - 10pm",
        "highlight": false
      },
      {
        "title": "Tuesday",
        "hours": "9am - 10pm",
        "highlight": false
      },
      {
        "title": "Wednesdy",
        "hours": "9am - 10pm",
        "highlight": false
      },
      {
        "title": "Thursday",
        "hours": "9am - 10pm",
        "highlight": false
      },
      {
        "title": "Friday",
        "hours": "9am - 10pm",
        "highlight": false
      },
      {
        "title": "Saturday",
        "hours": "10am - 7pm",
        "highlight": false
      },
      {
        "title": "Sunday",
        "hours": "10am - 7pm",
        "highlight": false
      },
      {
        "title": "half price sale starts",
        "hours": "30 mins prior to close",
        "highlight": true
      },
      {
        "title": "beer & bowl deal available",
        "hours": "",
        "highlight": true
      }
    ],
    "delivery_options": [
      {
        "location_option": "deliveroo",
        "link_or_phone_number": "https:\/\/deliveroo.co.uk\/brands\/itsu\/?utm_medium=backlink&utm_source=itsu&utm_campaign=webreferral"
      },
      {
        "location_option": "uber_eats",
        "link_or_phone_number": "https:\/\/www.ubereats.com\/en-GB\/london\/food-delivery\/itsu-high-holborn\/GbhlXVWWQeSRyTOuf0veBw\/"
      },
      {
        "location_option": "online",
        "link_or_phone_number": "https:\/\/www.just-eat.co.uk\/restaurants-itsu-highholborn-london\/menu"
      }
    ],
    "single_url": "https:\/\/www.itsu.com\/location\/high-holborn\/"
  },
  {
    "title": "Bedford Row (Holborn House)",
    "address_1": "51 Bedford Row",
    "address_2": "",
    "city": "London",
    "state": "",
    "postal_code": "WC1V 4LR",
    "country": "UK",
    "telephone": "0203-758-4161",
    "latitude": "51.518962",
    "longitude": "-0.115243",
    "transit_info": "Chancery Lane",
    "wifi_available": true,
    "hours": [
      {
        "title": "Monday",
        "hours": "11am - 6pm",
        "highlight": false
      },
      {
        "title": "Tuesday",
        "hours": "11am - 6pm",
        "highlight": false
      },
      {
        "title": "Wednesday",
        "hours": "11am - 6pm",
        "highlight": false
      },
      {
        "title": "Thursday",
        "hours": "11am - 6pm",
        "highlight": false
      },
      {
        "title": "Friday",
        "hours": "11am - 6pm",
        "highlight": false
      },
      {
        "title": "Saturday",
        "hours": "closed",
        "highlight": false
      },
      {
        "title": "Sunday",
        "hours": "closed",
        "highlight": false
      },
      {
        "title": "half price sale starts",
        "hours": "30 mins prior to close",
        "highlight": true
      }
    ],
    "delivery_options": [],
    "single_url": "https:\/\/www.itsu.com\/location\/bedford-row-holborn-house\/"
  },
  {
    "title": "Islington Angel Central",
    "address_1": "N1 Centre, 21 Parkfield Street, Islington",
    "address_2": "Unit 2",
    "city": "London",
    "state": "",
    "postal_code": "N1 0PS",
    "country": "UK",
    "telephone": "0207-359-9005",
    "latitude": "51.534325",
    "longitude": "-0.106258",
    "transit_info": "Angel",
    "wifi_available": true,
    "hours": [
      {
        "title": "Monday",
        "hours": "10am - 10pm",
        "highlight": false
      },
      {
        "title": "Tuesday",
        "hours": "10am - 10pm",
        "highlight": false
      },
      {
        "title": "Wednesday",
        "hours": "10am - 10pm",
        "highlight": false
      },
      {
        "title": "Thursday",
        "hours": "10am - 10pm",
        "highlight": false
      },
      {
        "title": "Friday",
        "hours": "10am - 10pm",
        "highlight": false
      },
      {
        "title": "Saturday",
        "hours": "10am - 10pm",
        "highlight": false
      },
      {
        "title": "Sunday",
        "hours": "10am - 9pm",
        "highlight": false
      },
      {
        "title": "half price sale starts",
        "hours": "30 mins prior to close",
        "highlight": true
      },
      {
        "title": "beer & bowl deal available",
        "hours": "",
        "highlight": true
      }
    ],
    "delivery_options": [
      {
        "location_option": "deliveroo",
        "link_or_phone_number": "https:\/\/deliveroo.co.uk\/brands\/itsu\/?utm_medium=backlink&utm_source=itsu&utm_campaign=webreferral"
      },
      {
        "location_option": "uber_eats",
        "link_or_phone_number": "https:\/\/www.ubereats.com\/en-GB\/london\/food-delivery\/itsu-islington\/L9VbjIWyTbWUZm4kJ0jnvA\/"
      },
      {
        "location_option": "online",
        "link_or_phone_number": "https:\/\/www.just-eat.co.uk\/restaurants-itsuislingtonangel-central\/menu"
      }
    ],
    "single_url": "https:\/\/www.itsu.com\/location\/islington-angel-central\/"
  },
  {
    "title": "Jubilee Place",
    "address_1": "Jubilee Place Mall, 28a Bank Street, Canary Wharf",
    "address_2": "",
    "city": "London",
    "state": "",
    "postal_code": "E14 5NY",
    "country": "UK",
    "telephone": "0203-764-0380",
    "latitude": "51.502572",
    "longitude": "-0.019797",
    "transit_info": "Canary Wharf",
    "wifi_available": true,
    "hours": [
      {
        "title": "Monday",
        "hours": "9am - 9pm",
        "highlight": false
      },
      {
        "title": "Tuesday",
        "hours": "9am - 9pm",
        "highlight": false
      },
      {
        "title": "Wednesday",
        "hours": "9am - 9pm",
        "highlight": false
      },
      {
        "title": "Thursday",
        "hours": "9am - 9pm",
        "highlight": false
      },
      {
        "title": "Friday",
        "hours": "9am - 9pm",
        "highlight": false
      },
      {
        "title": "Saturday",
        "hours": "11am - 6pm",
        "highlight": false
      },
      {
        "title": "Sunday",
        "hours": "11am - 5pm",
        "highlight": false
      },
      {
        "title": "half price sale starts",
        "hours": "30 mins prior to close",
        "highlight": true
      },
      {
        "title": "beer & bowl deal available",
        "hours": "",
        "highlight": true
      }
    ],
    "delivery_options": [
      {
        "location_option": "deliveroo",
        "link_or_phone_number": "https:\/\/deliveroo.co.uk\/brands\/itsu\/?utm_medium=backlink&utm_source=itsu&utm_campaign=webreferral"
      },
      {
        "location_option": "uber_eats",
        "link_or_phone_number": "https:\/\/www.ubereats.com\/en-GB\/london\/food-delivery\/itsu-jubilee-place\/Qu0uOcoWSQiH1431eY90sw\/"
      },
      {
        "location_option": "online",
        "link_or_phone_number": "https:\/\/www.just-eat.co.uk\/restaurants-itsujubilee-poplar\/menu"
      }
    ],
    "single_url": "https:\/\/www.itsu.com\/location\/jubilee-place\/"
  },
  {
    "title": "King William Street 18",
    "address_1": "18 King William Street",
    "address_2": "",
    "city": "London",
    "state": "",
    "postal_code": "EC4N 7BP",
    "country": "UK",
    "telephone": "0207-929-0502",
    "latitude": "51.511224",
    "longitude": "-0.087422",
    "transit_info": "Monument",
    "wifi_available": true,
    "hours": [
      {
        "title": "Monday",
        "hours": "10am - 8pm",
        "highlight": false
      },
      {
        "title": "Tuesday",
        "hours": "10am - 8pm",
        "highlight": false
      },
      {
        "title": "Wednesday",
        "hours": "10am - 8pm",
        "highlight": false
      },
      {
        "title": "Thursday",
        "hours": "10am - 8pm",
        "highlight": false
      },
      {
        "title": "Friday",
        "hours": "10am - 8pm",
        "highlight": false
      },
      {
        "title": "Saturday",
        "hours": "closed",
        "highlight": false
      },
      {
        "title": "Sunday",
        "hours": "closed",
        "highlight": false
      },
      {
        "title": "half price sale starts",
        "hours": "30 mins prior to close",
        "highlight": true
      }
    ],
    "delivery_options": [],
    "single_url": "https:\/\/www.itsu.com\/location\/king-william-street\/"
  },
  {
    "title": "Kings Road 47",
    "address_1": "47 King's Road",
    "address_2": "",
    "city": "London",
    "state": "",
    "postal_code": "SW3 4NB",
    "country": "UK",
    "telephone": "0203-7584-157",
    "latitude": "51.490112",
    "longitude": "-0.162174",
    "transit_info": "Sloane Square",
    "wifi_available": true,
    "hours": [
      {
        "title": "Monday",
        "hours": "10am - 10pm",
        "highlight": false
      },
      {
        "title": "Tuesday",
        "hours": "10am - 10pm",
        "highlight": false
      },
      {
        "title": "Wednesday",
        "hours": "10am - 10pm",
        "highlight": false
      },
      {
        "title": "Thursday",
        "hours": "10am - 10pm",
        "highlight": false
      },
      {
        "title": "Friday",
        "hours": "10am - 10pm",
        "highlight": false
      },
      {
        "title": "Saturday",
        "hours": "10am - 10pm",
        "highlight": false
      },
      {
        "title": "Sunday",
        "hours": "11am - 10pm",
        "highlight": false
      },
      {
        "title": "half price sale starts",
        "hours": "30 mins prior to close",
        "highlight": true
      },
      {
        "title": "beer & bowl deal available",
        "hours": "",
        "highlight": true
      }
    ],
    "delivery_options": [
      {
        "location_option": "deliveroo",
        "link_or_phone_number": "https:\/\/deliveroo.co.uk\/brands\/itsu\/?utm_medium=backlink&utm_source=itsu&utm_campaign=webreferral"
      },
      {
        "location_option": "uber_eats",
        "link_or_phone_number": "https:\/\/www.ubereats.com\/en-GB\/london\/food-delivery\/itsu-kings-road\/bijYrPZmSaengeFxdC7QCw\/"
      },
      {
        "location_option": "online",
        "link_or_phone_number": "https:\/\/www.just-eat.co.uk\/restaurants-itsukingsroad-chelsea\/menu"
      }
    ],
    "single_url": "https:\/\/www.itsu.com\/location\/kings-road\/"
  },
  {
    "title": "Kingston Clarence Street",
    "address_1": "22 Clarence St",
    "address_2": "",
    "city": "London",
    "state": "",
    "postal_code": "KT1 1NX",
    "country": "UK",
    "telephone": "0203-758-4162",
    "latitude": "51.410627",
    "longitude": "-0.304478",
    "transit_info": "",
    "wifi_available": true,
    "hours": [
      {
        "title": "Monday",
        "hours": "10am - 9.00pm",
        "highlight": false
      },
      {
        "title": "Tuesday",
        "hours": "10am - 9.00pm",
        "highlight": false
      },
      {
        "title": "Wednesday",
        "hours": "10am - 9.00pm",
        "highlight": false
      },
      {
        "title": "Thursday",
        "hours": "10am - 9.00pm",
        "highlight": false
      },
      {
        "title": "Friday",
        "hours": "10am - 9.00pm",
        "highlight": false
      },
      {
        "title": "Saturday",
        "hours": "10am - 9.00pm",
        "highlight": false
      },
      {
        "title": "Sunday",
        "hours": "10am - 8.00pm",
        "highlight": false
      },
      {
        "title": "half price sale starts",
        "hours": "30 min prior to close",
        "highlight": true
      },
      {
        "title": "beer & bowl deal available",
        "hours": "",
        "highlight": true
      }
    ],
    "delivery_options": [
      {
        "location_option": "deliveroo",
        "link_or_phone_number": "https:\/\/deliveroo.co.uk\/brands\/itsu\/?utm_medium=backlink&utm_source=itsu&utm_campaign=webreferral"
      },
      {
        "location_option": "uber_eats",
        "link_or_phone_number": "https:\/\/www.ubereats.com\/en-GB\/london\/food-delivery\/itsu-kingston\/BHEaEbleSaC7u52p9YsoZw\/"
      },
      {
        "location_option": "online",
        "link_or_phone_number": "https:\/\/www.just-eat.co.uk\/restaurants-itsu-kingston\/menu"
      }
    ],
    "single_url": "https:\/\/www.itsu.com\/location\/kingston\/"
  },
  {
    "title": "Leeds Commercial Street",
    "address_1": "36-38 Commercial Street",
    "address_2": "",
    "city": "Leeds",
    "state": "",
    "postal_code": "LS1 6EX",
    "country": "UK",
    "telephone": "0113-467-7592",
    "latitude": "53.797250",
    "longitude": "-1.544502",
    "transit_info": "",
    "wifi_available": true,
    "hours": [
      {
        "title": "Monday",
        "hours": "10am - 9.30pm",
        "highlight": false
      },
      {
        "title": "Tuesday",
        "hours": "10am - 9.30pm",
        "highlight": false
      },
      {
        "title": "Wednesday",
        "hours": "10am - 9.30pm",
        "highlight": false
      },
      {
        "title": "Thursday",
        "hours": "10am - 9.30pm",
        "highlight": false
      },
      {
        "title": "Friday",
        "hours": "10am - 9.30pm",
        "highlight": false
      },
      {
        "title": "Saturday",
        "hours": "10am - 8.30pm",
        "highlight": false
      },
      {
        "title": "Sunday",
        "hours": "10am - 8pm",
        "highlight": false
      },
      {
        "title": "half price sale starts",
        "hours": "30 mins prior to close",
        "highlight": true
      },
      {
        "title": "beer & bowl deal available",
        "hours": "",
        "highlight": true
      }
    ],
    "delivery_options": [
      {
        "location_option": "deliveroo",
        "link_or_phone_number": "https:\/\/deliveroo.co.uk\/brands\/itsu\/?utm_medium=backlink&utm_source=itsu&utm_campaign=webreferral"
      },
      {
        "location_option": "online",
        "link_or_phone_number": "https:\/\/www.just-eat.co.uk\/restaurants-itsu-leeds\/menu"
      }
    ],
    "single_url": "https:\/\/www.itsu.com\/location\/leeds\/"
  },
  {
    "title": "Ludgate Hill 38",
    "address_1": "38-40 Ludgate Hill",
    "address_2": "",
    "city": "London",
    "state": "",
    "postal_code": "EC4M 7DE",
    "country": "UK",
    "telephone": "0203-006-8379",
    "latitude": "51.514019",
    "longitude": "-0.101730",
    "transit_info": "St Pauls",
    "wifi_available": true,
    "hours": [
      {
        "title": "Monday",
        "hours": "11am - 8pm",
        "highlight": false
      },
      {
        "title": "Tuesday",
        "hours": "11am - 8pm",
        "highlight": false
      },
      {
        "title": "Wednesday",
        "hours": "11am - 8pm",
        "highlight": false
      },
      {
        "title": "Thursday",
        "hours": "11am - 8pm",
        "highlight": false
      },
      {
        "title": "Friday",
        "hours": "11am - 8pm",
        "highlight": false
      },
      {
        "title": "Saturday",
        "hours": "closed",
        "highlight": false
      },
      {
        "title": "Sunday",
        "hours": "closed",
        "highlight": false
      },
      {
        "title": "half price sale starts",
        "hours": "30 mins prior to close",
        "highlight": true
      }
    ],
    "delivery_options": [],
    "single_url": "https:\/\/www.itsu.com\/location\/ludgate-hill\/"
  },
  {
    "title": "Manchester Spinningfields",
    "address_1": "1 Hardman Boulevard",
    "address_2": "",
    "city": "Manchester",
    "state": "",
    "postal_code": "M3 3AQ",
    "country": "UK",
    "telephone": "0161-6698-499",
    "latitude": "53.479990",
    "longitude": "-2.253775",
    "transit_info": "",
    "wifi_available": true,
    "hours": [
      {
        "title": "Monday",
        "hours": "10am - 9pm",
        "highlight": false
      },
      {
        "title": "Tuesday",
        "hours": "10am - 9pm",
        "highlight": false
      },
      {
        "title": "Wednesday",
        "hours": "10am - 9pm",
        "highlight": false
      },
      {
        "title": "Thursday",
        "hours": "10am - 9pm",
        "highlight": false
      },
      {
        "title": "Friday",
        "hours": "10am - 9pm",
        "highlight": false
      },
      {
        "title": "Saturday",
        "hours": "11.30am - 8pm",
        "highlight": false
      },
      {
        "title": "Sunday",
        "hours": "11:30am - 6pm",
        "highlight": false
      },
      {
        "title": "half price sale starts",
        "hours": "30 mins prior to close",
        "highlight": true
      },
      {
        "title": "beer & bowl deal available",
        "hours": "",
        "highlight": true
      }
    ],
    "delivery_options": [
      {
        "location_option": "deliveroo",
        "link_or_phone_number": "https:\/\/deliveroo.co.uk\/brands\/itsu\/?utm_medium=backlink&utm_source=itsu&utm_campaign=webreferral"
      },
      {
        "location_option": "uber_eats",
        "link_or_phone_number": "https:\/\/www.ubereats.com\/en-GB\/manchester\/food-delivery\/itsu-hardman-square\/chDvf-VJQvOJ65AkWxPElQ\/"
      },
      {
        "location_option": "online",
        "link_or_phone_number": "https:\/\/www.just-eat.co.uk\/restaurants-itsu---manchester\/menu"
      }
    ],
    "single_url": "https:\/\/www.itsu.com\/location\/manchester\/"
  },
  {
    "title": "More London 7",
    "address_1": "7 More London",
    "address_2": "",
    "city": "London",
    "state": "",
    "postal_code": "SE1 2BY",
    "country": "UK",
    "telephone": "0207-378-6023",
    "latitude": "51.504339",
    "longitude": "-0.081635",
    "transit_info": "London Bridge",
    "wifi_available": true,
    "hours": [
      {
        "title": "Monday",
        "hours": "9am - 9pm",
        "highlight": false
      },
      {
        "title": "Tuesday",
        "hours": "9am - 9pm",
        "highlight": false
      },
      {
        "title": "Wednesday",
        "hours": "9am - 9pm",
        "highlight": false
      },
      {
        "title": "Thursday",
        "hours": "9am - 9pm",
        "highlight": false
      },
      {
        "title": "Friday",
        "hours": "9am - 9pm",
        "highlight": false
      },
      {
        "title": "Saturday",
        "hours": "11am - 7pm",
        "highlight": false
      },
      {
        "title": "Sunday",
        "hours": "12pm - 5pm",
        "highlight": false
      },
      {
        "title": "half price sale starts",
        "hours": "30 mins prior to close",
        "highlight": true
      }
    ],
    "delivery_options": [],
    "single_url": "https:\/\/www.itsu.com\/location\/more-london\/"
  },
  {
    "title": "Neal Street 2",
    "address_1": "2-4 Neal Street",
    "address_2": "",
    "city": "London",
    "state": "",
    "postal_code": "WC2H 9LY",
    "country": "UK",
    "telephone": "0203-805-7924",
    "latitude": "51.513449",
    "longitude": "-0.124244",
    "transit_info": "Covent Garden",
    "wifi_available": true,
    "hours": [
      {
        "title": "Monday",
        "hours": "10am - 9pm",
        "highlight": false
      },
      {
        "title": "Tuesday",
        "hours": "10am - 9pm",
        "highlight": false
      },
      {
        "title": "Wednesday",
        "hours": "10am - 9pm",
        "highlight": false
      },
      {
        "title": "Thursday",
        "hours": "10am - 9pm",
        "highlight": false
      },
      {
        "title": "Friday",
        "hours": "10am - 9pm",
        "highlight": false
      },
      {
        "title": "Saturday",
        "hours": "10am - 9pm",
        "highlight": false
      },
      {
        "title": "Sunday",
        "hours": "11am - 7pm",
        "highlight": false
      },
      {
        "title": "half price sale starts",
        "hours": "30 mins prior to close",
        "highlight": true
      }
    ],
    "delivery_options": [],
    "single_url": "https:\/\/www.itsu.com\/location\/neal-street\/"
  },
  {
    "title": "New Fetter Lane",
    "address_1": "1 Great New Street",
    "address_2": "",
    "city": "London",
    "state": "",
    "postal_code": "EC4A 3BN",
    "country": "UK",
    "telephone": "0203-206-9419",
    "latitude": "51.516298",
    "longitude": "-0.108244",
    "transit_info": "Chancery Lane",
    "wifi_available": true,
    "hours": [
      {
        "title": "Monday",
        "hours": "11am - 8pm",
        "highlight": false
      },
      {
        "title": "Tuesday",
        "hours": "11am - 8pm",
        "highlight": false
      },
      {
        "title": "Wednesday",
        "hours": "11am - 8pm",
        "highlight": false
      },
      {
        "title": "Thursday",
        "hours": "11am - 8pm",
        "highlight": false
      },
      {
        "title": "Friday",
        "hours": "11am - 8pm",
        "highlight": false
      },
      {
        "title": "Saturday",
        "hours": "closed",
        "highlight": false
      },
      {
        "title": "Sunday",
        "hours": "closed",
        "highlight": false
      },
      {
        "title": "half price sale starts",
        "hours": "30 mins prior to close",
        "highlight": true
      }
    ],
    "delivery_options": [],
    "single_url": "https:\/\/www.itsu.com\/location\/new-fetter-lane\/"
  },
  {
    "title": "New Oxford Street 74",
    "address_1": "74 New Oxford Street",
    "address_2": "",
    "city": "London",
    "state": "",
    "postal_code": "WC1A 1EU",
    "country": "UK",
    "telephone": "0207-637-3436",
    "latitude": "51.516966",
    "longitude": "-0.127344",
    "transit_info": "Tottenham Court Road",
    "wifi_available": true,
    "hours": [
      {
        "title": "Monday",
        "hours": "11am - 9pm",
        "highlight": false
      },
      {
        "title": "Tuesday",
        "hours": "11am - 9pm",
        "highlight": false
      },
      {
        "title": "Wednesday",
        "hours": "11am - 9pm",
        "highlight": false
      },
      {
        "title": "Thursday",
        "hours": "11am - 9pm",
        "highlight": false
      },
      {
        "title": "Friday",
        "hours": "11am - 9pm",
        "highlight": false
      },
      {
        "title": "Saturday",
        "hours": "11am - 7pm",
        "highlight": false
      },
      {
        "title": "Sunday",
        "hours": "11am - 7pm",
        "highlight": false
      },
      {
        "title": "half price sale starts",
        "hours": "30 mins prior to close",
        "highlight": true
      }
    ],
    "delivery_options": [
      {
        "location_option": "deliveroo",
        "link_or_phone_number": "https:\/\/deliveroo.co.uk\/brands\/itsu\/?utm_medium=backlink&utm_source=itsu&utm_campaign=webreferral"
      },
      {
        "location_option": "uber_eats",
        "link_or_phone_number": "https:\/\/www.ubereats.com\/stores\/"
      }
    ],
    "single_url": "https:\/\/www.itsu.com\/location\/new-oxford-street\/"
  },
  {
    "title": "Notting Hill Gate 100",
    "address_1": "100 Notting Hill Gate",
    "address_2": "",
    "city": "London",
    "state": "",
    "postal_code": "W11 3QA",
    "country": "UK",
    "telephone": "0207-229-8308",
    "latitude": "51.509112",
    "longitude": "-0.197757",
    "transit_info": "Notting Hill Gate",
    "wifi_available": true,
    "hours": [
      {
        "title": "Monday",
        "hours": "10am - 10:30pm",
        "highlight": false
      },
      {
        "title": "Tuesday",
        "hours": "10am - 10:30pm",
        "highlight": false
      },
      {
        "title": "Wednesday",
        "hours": "10am - 10:30pm",
        "highlight": false
      },
      {
        "title": "Thursday",
        "hours": "10am - 10:30pm",
        "highlight": false
      },
      {
        "title": "Friday",
        "hours": "10am - 10:30pm",
        "highlight": false
      },
      {
        "title": "Saturday",
        "hours": "10am - 10:30pm",
        "highlight": false
      },
      {
        "title": "Sunday",
        "hours": "11am - 10pm",
        "highlight": false
      },
      {
        "title": "half price sale starts",
        "hours": "30 mins prior to close",
        "highlight": true
      },
      {
        "title": "beer & bowl deal available",
        "hours": "",
        "highlight": true
      }
    ],
    "delivery_options": [
      {
        "location_option": "call",
        "link_or_phone_number": "+44 (0) 207 584 5522"
      },
      {
        "location_option": "online",
        "link_or_phone_number": "http:\/\/orders-itsu.com"
      },
      {
        "location_option": "deliveroo",
        "link_or_phone_number": "https:\/\/deliveroo.co.uk\/brands\/itsu\/?utm_medium=backlink&utm_source=itsu&utm_campaign=webreferral"
      },
      {
        "location_option": "uber_eats",
        "link_or_phone_number": "https:\/\/www.ubereats.com\/en-GB\/london\/food-delivery\/itsu-notting-hill\/N0uelG0yQLK3ORZgxN3S0Q\/"
      },
      {
        "location_option": "online",
        "link_or_phone_number": "https:\/\/citypantry.com\/menus\/vendors\/itsu\/menu?utm_source=itsu&utm_medium=referral&utm_campaign=vendor-backlink"
      },
      {
        "location_option": "online",
        "link_or_phone_number": "https:\/\/www.just-eat.co.uk\/restaurants-itsu-nottinghill\/menu"
      }
    ],
    "single_url": "https:\/\/www.itsu.com\/location\/notting-hill\/"
  },
  {
    "title": "Old Broad Street 57",
    "address_1": "57 Old Broad Street",
    "address_2": "",
    "city": "London",
    "state": "",
    "postal_code": "EC2M 1RX",
    "country": "UK",
    "telephone": "0207-256-2194",
    "latitude": "51.517021",
    "longitude": "-0.083172",
    "transit_info": "Liverpool Street",
    "wifi_available": true,
    "hours": [
      {
        "title": "Monday",
        "hours": "11am - 8pm",
        "highlight": false
      },
      {
        "title": "Tuesday",
        "hours": "11am - 8pm",
        "highlight": false
      },
      {
        "title": "Wednesday",
        "hours": "11am - 8pm",
        "highlight": false
      },
      {
        "title": "Thursday",
        "hours": "11am - 8pm",
        "highlight": false
      },
      {
        "title": "Friday",
        "hours": "11am - 8pm",
        "highlight": false
      },
      {
        "title": "Saturday",
        "hours": "closed",
        "highlight": false
      },
      {
        "title": "Sunday",
        "hours": "closed",
        "highlight": false
      },
      {
        "title": "half price sale starts",
        "hours": "30 mins prior to close",
        "highlight": true
      }
    ],
    "delivery_options": [],
    "single_url": "https:\/\/www.itsu.com\/location\/old-broad-street\/"
  },
  {
    "title": "Oxford Cornmarket Street",
    "address_1": "36 Cornmarket Street",
    "address_2": "",
    "city": "Oxford",
    "state": "",
    "postal_code": "OX1 3EZ",
    "country": "UK",
    "telephone": "01865-793-965",
    "latitude": "51.753679",
    "longitude": "-1.258873",
    "transit_info": "",
    "wifi_available": true,
    "hours": [
      {
        "title": "Monday",
        "hours": "10am - 10pm",
        "highlight": false
      },
      {
        "title": "Tuesday",
        "hours": "10am - 10pm",
        "highlight": false
      },
      {
        "title": "Wednesday",
        "hours": "10am - 10pm",
        "highlight": false
      },
      {
        "title": "Thursday",
        "hours": "10am - 10pm",
        "highlight": false
      },
      {
        "title": "Friday",
        "hours": "10am - 10:30pm",
        "highlight": false
      },
      {
        "title": "Saturday",
        "hours": "10am - 10:30pm",
        "highlight": false
      },
      {
        "title": "Sunday",
        "hours": "11am - 9pm",
        "highlight": false
      },
      {
        "title": "half price sale starts",
        "hours": "30 mins prior to close",
        "highlight": true
      },
      {
        "title": "beer & bowl deal available",
        "hours": "",
        "highlight": true
      }
    ],
    "delivery_options": [
      {
        "location_option": "online",
        "link_or_phone_number": "https:\/\/deliveroo.co.uk\/brands\/itsu\/?utm_medium=backlink&utm_source=itsu&utm_campaign=webreferral"
      },
      {
        "location_option": "online",
        "link_or_phone_number": "https:\/\/www.just-eat.co.uk\/restaurants-itsuoxfordcornmarket-oxford\/menu"
      }
    ],
    "single_url": "https:\/\/www.itsu.com\/location\/oxford\/"
  },
  {
    "title": "Paddington Sheldon Square",
    "address_1": "Sheldon Square, Paddington Central",
    "address_2": "Unit 9",
    "city": "London",
    "state": "",
    "postal_code": "W2 6EZ",
    "country": "UK",
    "telephone": "020-7286-3823",
    "latitude": "51.518873",
    "longitude": "-0.179623",
    "transit_info": "Paddington",
    "wifi_available": true,
    "hours": [
      {
        "title": "Monday",
        "hours": "10am - 8pm",
        "highlight": false
      },
      {
        "title": "Tuesday",
        "hours": "10am - 8pm",
        "highlight": false
      },
      {
        "title": "Wednesday",
        "hours": "10am - 8pm",
        "highlight": false
      },
      {
        "title": "Thursday",
        "hours": "10am - 8pm",
        "highlight": false
      },
      {
        "title": "Friday",
        "hours": "10am - 8pm",
        "highlight": false
      },
      {
        "title": "Saturday",
        "hours": "closed",
        "highlight": false
      },
      {
        "title": "Sunday",
        "hours": "closed",
        "highlight": false
      },
      {
        "title": "half price sale starts",
        "hours": "30 mins prior to close",
        "highlight": true
      }
    ],
    "delivery_options": [
      {
        "location_option": "deliveroo",
        "link_or_phone_number": "https:\/\/deliveroo.co.uk\/brands\/itsu\/?utm_medium=backlink&utm_source=itsu&utm_campaign=webreferral"
      },
      {
        "location_option": "uber_eats",
        "link_or_phone_number": "https:\/\/www.ubereats.com\/en-GB\/london\/food-delivery\/itsu-paddington\/NSb2pagiRkiXsuaLRvnxHw\/"
      }
    ],
    "single_url": "https:\/\/www.itsu.com\/location\/paddington\/"
  },
  {
    "title": "Paternoster Square",
    "address_1": "Paternoster Row",
    "address_2": "",
    "city": "London",
    "state": "",
    "postal_code": "EC4M 7EJ",
    "country": "UK",
    "telephone": "0207-248-9343",
    "latitude": "51.515079",
    "longitude": "-0.099001",
    "transit_info": "St Pauls",
    "wifi_available": true,
    "hours": [
      {
        "title": "Monday",
        "hours": "10am - 9pm",
        "highlight": false
      },
      {
        "title": "Tuesday",
        "hours": "10am - 9pm",
        "highlight": false
      },
      {
        "title": "Wednesday",
        "hours": "10am - 9pm",
        "highlight": false
      },
      {
        "title": "Thursday",
        "hours": "10am - 9pm",
        "highlight": false
      },
      {
        "title": "Friday",
        "hours": "10am - 9pm",
        "highlight": false
      },
      {
        "title": "Saturday",
        "hours": "11am - 7pm",
        "highlight": false
      },
      {
        "title": "Sunday",
        "hours": "11am - 5pm",
        "highlight": false
      },
      {
        "title": "half price sale starts",
        "hours": "30 mins prior to close",
        "highlight": true
      },
      {
        "title": "beer & bowl deal available",
        "hours": "",
        "highlight": true
      }
    ],
    "delivery_options": [],
    "single_url": "https:\/\/www.itsu.com\/location\/paternoster-square\/"
  },
  {
    "title": "Piccadilly 167",
    "address_1": "167 Piccadilly",
    "address_2": "",
    "city": "London",
    "state": "",
    "postal_code": "W1J 9EG",
    "country": "UK",
    "telephone": "0207-495-4048",
    "latitude": "51.507941",
    "longitude": "-0.139822",
    "transit_info": "Green Park",
    "wifi_available": true,
    "hours": [
      {
        "title": "Monday",
        "hours": "10am - 10pm",
        "highlight": false
      },
      {
        "title": "Tuesday",
        "hours": "10am - 10pm",
        "highlight": false
      },
      {
        "title": "Wednesday",
        "hours": "10am - 10pm",
        "highlight": false
      },
      {
        "title": "Thursday",
        "hours": "10am - 10pm",
        "highlight": false
      },
      {
        "title": "Friday",
        "hours": "10am - 10pm",
        "highlight": false
      },
      {
        "title": "Saturday",
        "hours": "11am - 10pm",
        "highlight": false
      },
      {
        "title": "Sunday",
        "hours": "11am - 8pm",
        "highlight": false
      },
      {
        "title": "half price sale starts",
        "hours": "30 mins prior to close",
        "highlight": true
      },
      {
        "title": "beer & bowl deal available",
        "hours": "",
        "highlight": true
      }
    ],
    "delivery_options": [
      {
        "location_option": "deliveroo",
        "link_or_phone_number": "https:\/\/deliveroo.co.uk\/brands\/itsu\/?utm_medium=backlink&utm_source=itsu&utm_campaign=webreferral"
      },
      {
        "location_option": "uber_eats",
        "link_or_phone_number": "https:\/\/www.ubereats.com\/en-GB\/london\/food-delivery\/itsu-piccadilly\/zWo_yvpuRAGa9hiBda7R-w\/"
      }
    ],
    "single_url": "https:\/\/www.itsu.com\/location\/piccadilly\/"
  },
  {
    "title": "Reading Queen Victoria Street",
    "address_1": "31 Queen Victoria Street",
    "address_2": "",
    "city": "Reading",
    "state": "",
    "postal_code": "RG1 1SY",
    "country": "UK",
    "telephone": "0118-4020-979",
    "latitude": "51.456783",
    "longitude": "-0.972087",
    "transit_info": "",
    "wifi_available": true,
    "hours": [
      {
        "title": "Monday",
        "hours": "10am - 8:30pm",
        "highlight": false
      },
      {
        "title": "Tuesday",
        "hours": "10am - 8:30pm",
        "highlight": false
      },
      {
        "title": "Wednesday",
        "hours": "10am - 8:30pm",
        "highlight": false
      },
      {
        "title": "Thursday",
        "hours": "10am - 8:30pm",
        "highlight": false
      },
      {
        "title": "Friday",
        "hours": "10am - 8:30pm",
        "highlight": false
      },
      {
        "title": "Saturday",
        "hours": "10am - 8:30pm",
        "highlight": false
      },
      {
        "title": "Sunday",
        "hours": "11am - 7pm",
        "highlight": false
      },
      {
        "title": "half price sale starts",
        "hours": "30mins prior to close",
        "highlight": true
      },
      {
        "title": "beer & bowl deal available",
        "hours": "",
        "highlight": true
      }
    ],
    "delivery_options": [
      {
        "location_option": "deliveroo",
        "link_or_phone_number": "https:\/\/deliveroo.co.uk\/brands\/itsu\/?utm_medium=backlink&utm_source=itsu&utm_campaign=webreferral"
      },
      {
        "location_option": "online",
        "link_or_phone_number": "https:\/\/www.just-eat.co.uk\/restaurants-itsu-reading\/menu"
      }
    ],
    "single_url": "https:\/\/www.itsu.com\/location\/reading\/"
  },
  {
    "title": "Regent&#8217;s Place",
    "address_1": "15-20 Hampstead Road",
    "address_2": "",
    "city": "London",
    "state": "",
    "postal_code": "NW1 3JA",
    "country": "UK",
    "telephone": "0207-387-6011",
    "latitude": "51.525928",
    "longitude": "-0.138912",
    "transit_info": "Warren Street",
    "wifi_available": true,
    "hours": [
      {
        "title": "Monday",
        "hours": "10am - 8pm",
        "highlight": false
      },
      {
        "title": "Tuesday",
        "hours": "10am - 8pm",
        "highlight": false
      },
      {
        "title": "Wednesday",
        "hours": "10am - 8pm",
        "highlight": false
      },
      {
        "title": "Thursday",
        "hours": "10am - 8pm",
        "highlight": false
      },
      {
        "title": "Saturday",
        "hours": "closed",
        "highlight": false
      },
      {
        "title": "Sunday",
        "hours": "closed",
        "highlight": false
      },
      {
        "title": "half price sale starts",
        "hours": "30 mins prior to close",
        "highlight": true
      }
    ],
    "delivery_options": [],
    "single_url": "https:\/\/www.itsu.com\/location\/regents-place\/"
  },
  {
    "title": "Richmond George Street",
    "address_1": "40 George Street",
    "address_2": "",
    "city": "London",
    "state": "",
    "postal_code": "TW9 1HY",
    "country": "UK",
    "telephone": "0203-764-0388",
    "latitude": "51.460663",
    "longitude": "-0.304382",
    "transit_info": "Richmond",
    "wifi_available": true,
    "hours": [
      {
        "title": "Monday",
        "hours": "10am - 9pm",
        "highlight": false
      },
      {
        "title": "Tuesday",
        "hours": "10am - 9pm",
        "highlight": false
      },
      {
        "title": "Wedneday",
        "hours": "10am - 9pm",
        "highlight": false
      },
      {
        "title": "Thursday",
        "hours": "10am - 9pm",
        "highlight": false
      },
      {
        "title": "Friday",
        "hours": "10am - 9pm",
        "highlight": false
      },
      {
        "title": "Saturday",
        "hours": "10am - 9pm",
        "highlight": false
      },
      {
        "title": "Sunday",
        "hours": "11am - 8pm",
        "highlight": false
      },
      {
        "title": "half price sale starts",
        "hours": "30 mins prior to close",
        "highlight": true
      },
      {
        "title": "beer & bowl deal available",
        "hours": "",
        "highlight": true
      }
    ],
    "delivery_options": [
      {
        "location_option": "deliveroo",
        "link_or_phone_number": "https:\/\/deliveroo.co.uk\/brands\/itsu\/?utm_medium=backlink&utm_source=itsu&utm_campaign=webreferral"
      },
      {
        "location_option": "uber_eats",
        "link_or_phone_number": "https:\/\/www.ubereats.com\/en-GB\/leeds\/food-delivery\/itsu-commercial-street\/_hmeNChfSpW04ataKFuaUw\/"
      },
      {
        "location_option": "online",
        "link_or_phone_number": "https:\/\/www.just-eat.co.uk\/restaurants-itsu-richmondgeorgestreet\/menu"
      }
    ],
    "single_url": "https:\/\/www.itsu.com\/location\/richmond\/"
  },
  {
    "title": "Sackville Street 27",
    "address_1": "27 Sackville Street",
    "address_2": "",
    "city": "London",
    "state": "",
    "postal_code": "W1S 3DT",
    "country": "UK",
    "telephone": "0207-734-8695",
    "latitude": "51.509959",
    "longitude": "-0.138862",
    "transit_info": "Piccadilly Circus",
    "wifi_available": true,
    "hours": [
      {
        "title": "Monday",
        "hours": "10am - 7pm",
        "highlight": false
      },
      {
        "title": "Tuesday",
        "hours": "10am - 7pm",
        "highlight": false
      },
      {
        "title": "Wednesday",
        "hours": "10am - 7pm",
        "highlight": false
      },
      {
        "title": "Thursday",
        "hours": "10am - 7pm",
        "highlight": false
      },
      {
        "title": "Friday",
        "hours": "10am - 7pm",
        "highlight": false
      },
      {
        "title": "Saturday",
        "hours": "closed",
        "highlight": false
      },
      {
        "title": "Sunday",
        "hours": "closed",
        "highlight": false
      },
      {
        "title": "half price sale starts",
        "hours": "30 mins prior to close",
        "highlight": true
      }
    ],
    "delivery_options": [],
    "single_url": "https:\/\/www.itsu.com\/location\/sackville-street\/"
  },
  {
    "title": "St Mary Axe 25",
    "address_1": "25 St. Mary Axe",
    "address_2": "",
    "city": "London",
    "state": "",
    "postal_code": "EC3A 8AA",
    "country": "UK",
    "telephone": "0207-283-3342",
    "latitude": "51.514838",
    "longitude": "-0.081121",
    "transit_info": "Liverpool Street",
    "wifi_available": true,
    "hours": [
      {
        "title": "Monday",
        "hours": "10am - 7pm",
        "highlight": false
      },
      {
        "title": "Tuesday",
        "hours": "10am - 7pm",
        "highlight": false
      },
      {
        "title": "Wednesday",
        "hours": "10am - 7pm",
        "highlight": false
      },
      {
        "title": "Thursday",
        "hours": "10am - 7pm",
        "highlight": false
      },
      {
        "title": "Friday",
        "hours": "10am - 7pm",
        "highlight": false
      },
      {
        "title": "Saturday",
        "hours": "closed",
        "highlight": false
      },
      {
        "title": "Sunday",
        "hours": "closed",
        "highlight": false
      },
      {
        "title": "half price sale starts",
        "hours": "30 mins prior to close",
        "highlight": true
      }
    ],
    "delivery_options": [],
    "single_url": "https:\/\/www.itsu.com\/location\/st-mary-axe\/"
  },
  {
    "title": "Spital Square 30",
    "address_1": "30 Spital Square",
    "address_2": "Unit 1",
    "city": "London",
    "state": "",
    "postal_code": "E1 6DX",
    "country": "UK",
    "telephone": "020-7377-9853",
    "latitude": "51.520305",
    "longitude": "-0.077409",
    "transit_info": "Liverpool Street",
    "wifi_available": true,
    "hours": [
      {
        "title": "Monday",
        "hours": "10am - 9pm",
        "highlight": false
      },
      {
        "title": "Tuesday",
        "hours": "10am - 9pm",
        "highlight": false
      },
      {
        "title": "Wednesday",
        "hours": "10am - 9pm",
        "highlight": false
      },
      {
        "title": "Thursday",
        "hours": "10am - 9pm",
        "highlight": false
      },
      {
        "title": "Friday",
        "hours": "10am - 9pm",
        "highlight": false
      },
      {
        "title": "Saturday",
        "hours": "11am - 7pm",
        "highlight": false
      },
      {
        "title": "Sunday",
        "hours": "11am - 7pm",
        "highlight": false
      },
      {
        "title": "half price sale starts",
        "hours": "30 mins prior to close",
        "highlight": true
      },
      {
        "title": "beer & bowl deal available",
        "hours": "",
        "highlight": true
      }
    ],
    "delivery_options": [
      {
        "location_option": "deliveroo",
        "link_or_phone_number": "https:\/\/deliveroo.co.uk\/brands\/itsu\/?utm_medium=backlink&utm_source=itsu&utm_campaign=webreferral"
      },
      {
        "location_option": "uber_eats",
        "link_or_phone_number": "https:\/\/www.ubereats.com\/en-GB\/london\/food-delivery\/itsu-spital-square\/6g2T68sxQ0KqQC5qjy6NRw\/"
      },
      {
        "location_option": "online",
        "link_or_phone_number": "https:\/\/www.just-eat.co.uk\/restaurants-itsuspital-square\/menu"
      }
    ],
    "single_url": "https:\/\/www.itsu.com\/location\/spital-square\/"
  },
  {
    "title": "Stansted Airside",
    "address_1": "Terminal Building, Stansted Airport",
    "address_2": "Unit ASD6",
    "city": "Essex",
    "state": "",
    "postal_code": "CM24 1RW",
    "country": "UK",
    "telephone": "0203-814-8660",
    "latitude": "51.886018",
    "longitude": "0.238866",
    "transit_info": "",
    "wifi_available": true,
    "hours": [
      {
        "title": "Monday",
        "hours": "4am - 11pm (breakfast until 10am)",
        "highlight": false
      },
      {
        "title": "Tuesday",
        "hours": "4am - 11pm (breakfast until 10am)",
        "highlight": false
      },
      {
        "title": "Wednesday",
        "hours": "4am - 11pm (breakfast until 10am)",
        "highlight": false
      },
      {
        "title": "Thursday",
        "hours": "4am - 11pm (breakfast until 10am)",
        "highlight": false
      },
      {
        "title": "Friday ",
        "hours": "4am - 11pm (breakfast until 10am)",
        "highlight": false
      },
      {
        "title": "Saturday ",
        "hours": "4am - 11pm (breakfast until 10am)",
        "highlight": false
      },
      {
        "title": "Sunday ",
        "hours": "4am - 11pm (breakfast until 10am)",
        "highlight": false
      },
      {
        "title": "half price sale starts",
        "hours": "30 mins prior to close",
        "highlight": true
      }
    ],
    "delivery_options": [],
    "single_url": "https:\/\/www.itsu.com\/location\/stansted-airport\/"
  },
  {
    "title": "Strand 82",
    "address_1": "82-83 The Strand",
    "address_2": "",
    "city": "London",
    "state": "",
    "postal_code": "WC2R 0RE",
    "country": "UK",
    "telephone": "0207-240-6814",
    "latitude": "51.510169",
    "longitude": "-0.121798",
    "transit_info": "Charing Cross",
    "wifi_available": true,
    "hours": [
      {
        "title": "Monday",
        "hours": "10am - 10pm",
        "highlight": false
      },
      {
        "title": "Tuesday",
        "hours": "10am - 10pm",
        "highlight": false
      },
      {
        "title": "Wednesday",
        "hours": "10am - 10pm",
        "highlight": false
      },
      {
        "title": "Thursday",
        "hours": "10am - 10pm",
        "highlight": false
      },
      {
        "title": "Friday",
        "hours": "10am - 10pm",
        "highlight": false
      },
      {
        "title": "Saturday",
        "hours": "12pm - 9pm",
        "highlight": false
      },
      {
        "title": "Sunday",
        "hours": "12pm - 6pm",
        "highlight": false
      },
      {
        "title": "half price sale starts",
        "hours": "30 mins prior to close",
        "highlight": true
      }
    ],
    "delivery_options": [
      {
        "location_option": "deliveroo",
        "link_or_phone_number": "https:\/\/deliveroo.co.uk\/brands\/itsu\/?utm_medium=backlink&utm_source=itsu&utm_campaign=webreferral"
      },
      {
        "location_option": "uber_eats",
        "link_or_phone_number": "https:\/\/www.ubereats.com\/en-GB\/london\/food-delivery\/itsu-strand\/OxgT4UOCQ42IuLwuMfg2cA\/"
      },
      {
        "location_option": "online",
        "link_or_phone_number": "https:\/\/www.just-eat.co.uk\/restaurants-itsu82-strandlondon\/menu"
      }
    ],
    "single_url": "https:\/\/www.itsu.com\/location\/strand-82-83\/"
  },
  {
    "title": "Strand 32",
    "address_1": "32-33 The Strand",
    "address_2": "",
    "city": "London",
    "state": "",
    "postal_code": "WC2N 6NA",
    "country": "UK",
    "telephone": "0203-764-0385",
    "latitude": "51.508781",
    "longitude": "-0.124456",
    "transit_info": "Charing Cross",
    "wifi_available": true,
    "hours": [
      {
        "title": "Monday",
        "hours": "10am - 11pm",
        "highlight": false
      },
      {
        "title": "Tuesday",
        "hours": "10am - 11pm",
        "highlight": false
      },
      {
        "title": "Wednesday",
        "hours": "10am - 11pm",
        "highlight": false
      },
      {
        "title": "Thursday",
        "hours": "10am - 11pm",
        "highlight": false
      },
      {
        "title": "Friday",
        "hours": "10am - 11pm",
        "highlight": false
      },
      {
        "title": "Saturday",
        "hours": "10am - 11pm",
        "highlight": false
      },
      {
        "title": "Sunday",
        "hours": "10am - 9pm",
        "highlight": false
      },
      {
        "title": "half price sale starts",
        "hours": "30 mins prior to close",
        "highlight": true
      },
      {
        "title": "beer & bowl deal available",
        "hours": "",
        "highlight": true
      }
    ],
    "delivery_options": [
      {
        "location_option": "deliveroo",
        "link_or_phone_number": "https:\/\/deliveroo.co.uk\/brands\/itsu\/?utm_medium=backlink&utm_source=itsu&utm_campaign=webreferral"
      },
      {
        "location_option": "uber_eats",
        "link_or_phone_number": "https:\/\/www.ubereats.com\/en-GB\/london\/food-delivery\/itsu-strand\/OxgT4UOCQ42IuLwuMfg2cA\/"
      }
    ],
    "single_url": "https:\/\/www.itsu.com\/location\/strand-32\/"
  },
  {
    "title": "Heathrow T5 Airside",
    "address_1": "Terminal 5, Heathrow Airport, Hounslow",
    "address_2": "Unit 2071, Gate level",
    "city": "Hounslow",
    "state": "",
    "postal_code": "TW6 2GA",
    "country": "UK",
    "telephone": "0203-728-2469",
    "latitude": "51.471466",
    "longitude": "-0.487981",
    "transit_info": "",
    "wifi_available": true,
    "hours": [
      {
        "title": "Monday",
        "hours": "04:30am - 30 minutes before the last flight",
        "highlight": false
      },
      {
        "title": "Tuesday",
        "hours": "04:30am - 30 minutes before the last flight",
        "highlight": false
      },
      {
        "title": "Wednesday",
        "hours": "04:30am - 30 minutes before the last flight",
        "highlight": false
      },
      {
        "title": "Thursday",
        "hours": "04:30am - 30 minutes before the last flight",
        "highlight": false
      },
      {
        "title": "Friday",
        "hours": "04:30am - 30 minutes before the last flight",
        "highlight": false
      },
      {
        "title": "Saturday",
        "hours": "04:30am - 30 minutes before the last flight",
        "highlight": false
      },
      {
        "title": "Sunday",
        "hours": "04:30am - 30 minutes before the last flight",
        "highlight": false
      },
      {
        "title": "half price sale starts",
        "hours": "30 mins prior to close",
        "highlight": true
      }
    ],
    "delivery_options": [],
    "single_url": "https:\/\/www.itsu.com\/location\/heathrow-terminal-5\/"
  },
  {
    "title": "Tottenham Court Road 53",
    "address_1": "53-54 Tottenham Court Road",
    "address_2": "",
    "city": "London",
    "state": "",
    "postal_code": "W1T 2EQ",
    "country": "UK",
    "telephone": "0207-637-3078",
    "latitude": "51.519494",
    "longitude": "-0.133465",
    "transit_info": "Goodge Street",
    "wifi_available": true,
    "hours": [
      {
        "title": "Monday",
        "hours": "11am - 9pm",
        "highlight": false
      },
      {
        "title": "Tuesday",
        "hours": "11am - 9pm",
        "highlight": false
      },
      {
        "title": "Wednesday",
        "hours": "11am - 9pm",
        "highlight": false
      },
      {
        "title": "Thursday",
        "hours": "11am - 9pm",
        "highlight": false
      },
      {
        "title": "Friday",
        "hours": "11am - 9pm",
        "highlight": false
      },
      {
        "title": "Saturday",
        "hours": "11am - 7pm",
        "highlight": false
      },
      {
        "title": "Sunday",
        "hours": "11am - 7pm",
        "highlight": false
      },
      {
        "title": "half price sale starts",
        "hours": "30 mins prior to close",
        "highlight": true
      },
      {
        "title": "beer & bowl deal available",
        "hours": "",
        "highlight": true
      }
    ],
    "delivery_options": [
      {
        "location_option": "deliveroo",
        "link_or_phone_number": "https:\/\/deliveroo.co.uk\/brands\/itsu\/?utm_medium=backlink&utm_source=itsu&utm_campaign=webreferral"
      },
      {
        "location_option": "online",
        "link_or_phone_number": "https:\/\/www.just-eat.co.uk\/restaurants-itsu---tottenham-court-road\/menu"
      }
    ],
    "single_url": "https:\/\/www.itsu.com\/location\/tottenham-court-road-53-54\/"
  },
  {
    "title": "Tottenham Court Road 103",
    "address_1": "The Qube, 103 Tottenham Court Road",
    "address_2": "Unit 4",
    "city": "London",
    "state": "",
    "postal_code": "W1T 4EZ",
    "country": "UK",
    "telephone": "0207 637 1807",
    "latitude": "51.522597",
    "longitude": "-0.136677",
    "transit_info": "Warren Street",
    "wifi_available": true,
    "hours": [
      {
        "title": "Monday",
        "hours": "10am - 9pm",
        "highlight": false
      },
      {
        "title": "Tuesday",
        "hours": "10am - 9pm",
        "highlight": false
      },
      {
        "title": "Wednesday",
        "hours": "10am - 9pm",
        "highlight": false
      },
      {
        "title": "Thursday",
        "hours": "10am - 9pm",
        "highlight": false
      },
      {
        "title": "Friday",
        "hours": "10am - 9pm",
        "highlight": false
      },
      {
        "title": "Saturday",
        "hours": "11am - 7pm",
        "highlight": false
      },
      {
        "title": "Sunday",
        "hours": "11am - 7pm",
        "highlight": false
      },
      {
        "title": "half price sale starts",
        "hours": "30 mins prior to close",
        "highlight": true
      }
    ],
    "delivery_options": [],
    "single_url": "https:\/\/www.itsu.com\/location\/tottenham-court-road-103\/"
  },
  {
    "title": "Regent Street 313",
    "address_1": "313 Regent Street",
    "address_2": "",
    "city": "London",
    "state": "",
    "postal_code": "W1B 2HP",
    "country": "UK",
    "telephone": "0207-580-2773",
    "latitude": "51.517102",
    "longitude": "-0.143064",
    "transit_info": "Oxford Circus",
    "wifi_available": true,
    "hours": [
      {
        "title": "Monday",
        "hours": "10am - 9pm",
        "highlight": false
      },
      {
        "title": "Tuesday",
        "hours": "10am - 9pm",
        "highlight": false
      },
      {
        "title": "Wednesday",
        "hours": "10am - 9pm",
        "highlight": false
      },
      {
        "title": "Thursday",
        "hours": "10am - 9pm",
        "highlight": false
      },
      {
        "title": "Friday",
        "hours": "10am - 9pm",
        "highlight": false
      },
      {
        "title": "Saturday",
        "hours": "11am - 8pm",
        "highlight": false
      },
      {
        "title": "Sunday",
        "hours": "12pm - 8pm",
        "highlight": false
      },
      {
        "title": "half price sale starts",
        "hours": "30 mins prior to close",
        "highlight": true
      }
    ],
    "delivery_options": [
      {
        "location_option": "call",
        "link_or_phone_number": "+44 (0) 207 584 5522"
      },
      {
        "location_option": "online",
        "link_or_phone_number": "http:\/\/orders-itsu.com"
      },
      {
        "location_option": "online",
        "link_or_phone_number": "https:\/\/www.just-eat.co.uk\/restaurants-itsu-313regentstreet-london\/menu"
      },
      {
        "location_option": "online",
        "link_or_phone_number": "https:\/\/citypantry.com\/menus\/vendors\/itsu\/menu?utm_source=itsu&utm_medium=referral&utm_campaign=vendor-backlink"
      }
    ],
    "single_url": "https:\/\/www.itsu.com\/location\/upper-regent-street\/"
  },
  {
    "title": "Victoria Street 163",
    "address_1": "163 Victoria Street",
    "address_2": "",
    "city": "London",
    "state": "",
    "postal_code": "SW1E 5NA",
    "country": "UK",
    "telephone": "0207-630-7641",
    "latitude": "51.496702",
    "longitude": "-0.140855",
    "transit_info": "Victoria",
    "wifi_available": true,
    "hours": [
      {
        "title": "Monday",
        "hours": "10am - 10pm",
        "highlight": false
      },
      {
        "title": "Tuesday",
        "hours": "10am - 10pm",
        "highlight": false
      },
      {
        "title": "Wednesday",
        "hours": "10am - 10pm",
        "highlight": false
      },
      {
        "title": "Thursday",
        "hours": "10am - 10pm",
        "highlight": false
      },
      {
        "title": "Friday",
        "hours": "10am - 10pm",
        "highlight": false
      },
      {
        "title": "Saturday",
        "hours": "11am - 8pm",
        "highlight": false
      },
      {
        "title": "Sunday",
        "hours": "11am - 7pm",
        "highlight": false
      },
      {
        "title": "half price sale starts",
        "hours": "30 mins prior to close",
        "highlight": true
      }
    ],
    "delivery_options": [
      {
        "location_option": "deliveroo",
        "link_or_phone_number": "https:\/\/deliveroo.co.uk\/brands\/itsu\/?utm_medium=backlink&utm_source=itsu&utm_campaign=webreferral"
      },
      {
        "location_option": "uber_eats",
        "link_or_phone_number": "https:\/\/www.ubereats.com\/en-GB\/london\/food-delivery\/itsu-victoria\/u-mrURqlRQCex18yptA5MQ\/"
      },
      {
        "location_option": "online",
        "link_or_phone_number": "https:\/\/www.just-eat.co.uk\/restaurants-itsu-victoria163-london\/menu"
      }
    ],
    "single_url": "https:\/\/www.itsu.com\/location\/victoria-street-163\/"
  },
  {
    "title": "Westfield White City",
    "address_1": "Level 50, Unit U2116 and U3110, Westfield London",
    "address_2": "",
    "city": "London",
    "state": "",
    "postal_code": "W12 7GF",
    "country": "UK",
    "telephone": "0203-667-8304",
    "latitude": "51.509125",
    "longitude": "-0.221571",
    "transit_info": "Shepherd's Bush Station",
    "wifi_available": true,
    "hours": [
      {
        "title": "Monday",
        "hours": "10am - 10pm",
        "highlight": false
      },
      {
        "title": "Tuesday",
        "hours": "10am - 10pm",
        "highlight": false
      },
      {
        "title": "Wednesday",
        "hours": "10am - 10pm",
        "highlight": false
      },
      {
        "title": "Thursday",
        "hours": "10am - 10pm",
        "highlight": false
      },
      {
        "title": "Friday",
        "hours": "10am - 10pm",
        "highlight": false
      },
      {
        "title": "Saturday",
        "hours": "10am - 10pm",
        "highlight": false
      },
      {
        "title": "Sunday",
        "hours": "11am - 7pm",
        "highlight": false
      },
      {
        "title": "half price sale starts",
        "hours": "30 mins prior to close",
        "highlight": true
      }
    ],
    "delivery_options": [
      {
        "location_option": "deliveroo",
        "link_or_phone_number": "https:\/\/deliveroo.co.uk\/brands\/itsu\/?utm_medium=backlink&utm_source=itsu&utm_campaign=webreferral"
      },
      {
        "location_option": "uber_eats",
        "link_or_phone_number": "https:\/\/www.ubereats.com\/en-GB\/london\/food-delivery\/itsu-westfield\/L6ei7IOITiSmNnHlxqyBaA\/"
      }
    ],
    "single_url": "https:\/\/www.itsu.com\/location\/westfield-white-city\/"
  },
  {
    "title": "Aldgate High Street 77",
    "address_1": "1 Minories",
    "address_2": "",
    "city": "London",
    "state": "",
    "postal_code": "EC3N 1BJ",
    "country": "UK",
    "telephone": "0203 657 7038",
    "latitude": "51.5136602",
    "longitude": "-0.0757869",
    "transit_info": "Aldgate",
    "wifi_available": true,
    "hours": [
      {
        "title": "Monday",
        "hours": "10am - 9pm",
        "highlight": false
      },
      {
        "title": "Tuesday",
        "hours": "10am - 9pm",
        "highlight": false
      },
      {
        "title": "Wednesdy",
        "hours": "10am - 9pm",
        "highlight": false
      },
      {
        "title": "Thursday",
        "hours": "10am - 9pm",
        "highlight": false
      },
      {
        "title": "Friday",
        "hours": "10am - 9pm",
        "highlight": false
      },
      {
        "title": "Saturday",
        "hours": "closed",
        "highlight": false
      },
      {
        "title": "Sunday",
        "hours": "closed",
        "highlight": false
      },
      {
        "title": "half-price sale starts at",
        "hours": "30 mins prior to close",
        "highlight": true
      }
    ],
    "delivery_options": [
      {
        "location_option": "deliveroo",
        "link_or_phone_number": "https:\/\/deliveroo.co.uk\/brands\/itsu\/?utm_medium=backlink&utm_source=itsu&utm_campaign=webreferral"
      },
      {
        "location_option": "uber_eats",
        "link_or_phone_number": "https:\/\/www.ubereats.com\/en-GB\/london\/food-delivery\/itsu-aldgate\/dO8ZeXLtSq6NCCI_-wI9HA\/"
      },
      {
        "location_option": "online",
        "link_or_phone_number": "https:\/\/www.just-eat.co.uk\/restaurants-itsu-aldgate\/menu"
      }
    ],
    "single_url": "https:\/\/www.itsu.com\/location\/aldgate-high-street\/"
  }
]